name,address,phone,lat,lng,category2,category3,dataset,Chain,Update date,NEMS Code,num_name,toupper(name),check
1 FOR 1 PIZZA,1012 MERIVALE ROAD,NA,45.37953568,-75.73349762,fast food,regular,old,1,20180628,319,1012 MERIVALE,1 FOR 1 PIZZA,FALSE
1 For 1 Pizza,"1020 St. Laurent Boulevard, Ottawa K1K 4S2",+1 (613) 234-0234,45.4279055556,-75.6397555556,Restaurant,Dine Out,new,NA,NA,NA,1020 ST,1 FOR 1 PIZZA,TRUE
1 FOR 1 PIZZA,1020 ST LAURENT BOULEVARD,NA,45.42784882,-75.63983154,fast food,regular,old,1,20180628,319,1020 ST,1 FOR 1 PIZZA,TRUE
1 FOR 1 PIZZA,1729 BANK STREET,NA,45.37418365,-75.66487122,fast food,regular,old,1,20180628,319,1729 BANK,1 FOR 1 PIZZA,FALSE
1 FOR 1 PIZZA,1741 ST LAURENT BOULEVARD,NA,45.4053421,-75.62585449,fast food,regular,old,1,20180628,319,1741 ST,1 FOR 1 PIZZA,FALSE
1 FOR 1 PIZZA,195 RIDEAU STREET,NA,45.42761612,-75.6889267,fast food,regular,old,1,20180628,319,195 RIDEAU,1 FOR 1 PIZZA,FALSE
1 FOR 1 PIZZA,250 GREENBANK ROAD,NA,45.32530975,-75.77960968,fast food,regular,old,1,20180628,319,250 GREENBANK,1 FOR 1 PIZZA,FALSE
1 FOR 1 PIZZA,288 BANK STREET,NA,45.41553879,-75.69664001,fast food,regular,old,1,20180628,319,288 BANK,1 FOR 1 PIZZA,FALSE
1 FOR 1 PIZZA,2900 WOODROOFE AVENUE,NA,45.29259491,-75.7289505,fast food,regular,old,1,20180628,319,2900 WOODROOFE,1 FOR 1 PIZZA,FALSE
1000 Sushi Islands,"Barrhaven Town Centre, 129 Riocan Avenue, Ottawa K2J 5G3",+1 (613) 825-3703,45.2695,-75.7386861111,Restaurant,Dine Out,new,NA,NA,NA,NA,1000 SUSHI ISLANDS,FALSE
1000 SUSHI ISLANDS,129A RIOCAN AVENUE,NA,45.26945496,-75.73872375,restaurant,regular,old,0,20180706,NA,NA,1000 SUSHI ISLANDS,FALSE
101’s Grill,"1125 Colonel By Drive, Ottawa, ON K1S 5B6",NA,45.3874739,-75.6959848,restaurant,regular,old,0,20180710,NA,1125 COLONEL,101’S GRILL,FALSE
101s,"Carleton University, Oasis - Residence Commons, 1125 Colonel By Drive, Lower Level, Ottawa K1S 5B6",+1 (613) 520-2600,45.387115,-75.696618,Restaurant,Dine Out,new,NA,NA,NA,NA,101S,FALSE
107 Fourth Avenue Wine Bar & Café,"107 Fourth Avenue, Ottawa K1S 2L1",+1 (613) 236-0040,45.4025722222,-75.6875916667,Restaurant,Dine Out,new,NA,NA,NA,107 FOURTH,107 FOURTH AVENUE WINE BAR & CAFÉ,TRUE
107 Fourth Avenue Wine Bar & Café,"107 Fourth Ave #1, Ottawa, ON K1S 2L1",NA,45.4026788,-75.6876511,restaurant,nightlife,old,0,201806,NA,107 FOURTH,107 FOURTH AVENUE WINE BAR & CAFÉ,TRUE
10Fourteen,"1014 Wellington Street West, Ottawa K1Y 2Y1",+1 (613) 422-8610,45.40485,-75.72355,Restaurant,Dine Out,new,NA,NA,NA,1014 WELLINGTON,10FOURTEEN,TRUE
10Fourteen,"1014 Wellington Street W, Ottawa, ON K1Y 2X9",NA,45.4047964,-75.7234749,restaurant,nightlife,old,0,20180710,NA,1014 WELLINGTON,10FOURTEEN,TRUE
168 Sushi,"1760 St. Laurent Boulevard, Ottawa K1G 1A2",+1 (613) 523-1680,45.4045361111,-75.6271055556,Restaurant,Dine Out,new,NA,NA,NA,1760 ST,168 SUSHI,FALSE
168 Sushi Japan Buffet,"1651 Merivale Road, Ottawa K2G 3K2",+1 (613) 228-0168,45.3511,-75.7315666667,Restaurant,Dine Out,new,NA,NA,NA,1651 MERIVALE,168 SUSHI JAPAN BUFFET,FALSE
168 SUSHI JAPANESE BUFFET,1651 MERIVALE ROAD,NA,45.35095596,-75.73196411,restaurant,regular,old,1,20180706,NA,1651 MERIVALE,168 SUSHI JAPANESE BUFFET,FALSE
168 SUSHI JAPANESE BUFFET,"1760 Saint Laurent Boulevard, Ottawa, ON K1G 1A2",NA,45.4045938,-75.627051,restaurant,regular,old,1,20180706,NA,1760 SAINT,168 SUSHI JAPANESE BUFFET,FALSE
18,18 YORK STREET,NA,45.42738724,-75.69409943,restaurant,regular,old,0,20180706,NA,18 YORK,18,FALSE
1848,"University of Ottawa, University Centre, 85 University Private, Second Floor, Ottawa K1N 6N5",+1 (613) 562-5800,45.42207,-75.683677,Restaurant,Dine Out,new,NA,NA,NA,NA,1848,FALSE
1848,"Floor 2, 85 Université Pvt, Ottawa, ON K1N 6N5",NA,45.4225565,-75.6833275,restaurant,nightlife,old,0,201806,NA,NA,1848,FALSE
2 For 1 Pizza,"320 Bank Street, Ottawa K2P 1Y1",+1 (613) 234-6336,45.414413,-75.695634,Restaurant,Dine Out,new,NA,NA,NA,320 BANK,2 FOR 1 PIZZA,FALSE
222 Lyon Tapas Bar,"222 Lyon Street North, Ottawa K1R 5V9",+1 (613) 238-0222,45.4160333333,-75.7027055556,Restaurant,Dine Out,new,NA,NA,NA,222 LYON,222 LYON TAPAS BAR,TRUE
222 Lyon Tapas Bar,"222 Lyon St N, Ottawa, ON K1R 5V9",NA,45.4160221,-75.7028571,restaurant,regular,old,0,20180710,NA,222 LYON,222 LYON TAPAS BAR,TRUE
3 Brewers,"240 Sparks Street, Local C215, Ottawa, ON K1P 6C9",NA,45.420296,-75.7024018,restaurant,nightlife,old,1,201806,NA,240 SPARKS,3 BREWERS,FALSE
3 Brewers,"565 Kanata Ave, Kanata, ON K2T 1K5",NA,45.3100669,-75.9082407,restaurant,nightlife,old,1,201806,NA,565 KANATA,3 BREWERS,FALSE
3 BROTHERS SHAWARMA & POUTINE,124 OSGOODE STREET,NA,45.42392349,-75.68076324,fast food,regular,old,1,20180628,25,124 OSGOODE,3 BROTHERS SHAWARMA & POUTINE,FALSE
3 Brothers Shawarma & Poutine,"160 Rideau Street, Ottawa K1N 5X4",+1 (613) 321-6990,45.4271023,-75.6896682,Restaurant,Dine Out,new,NA,NA,NA,160 RIDEAU,3 BROTHERS SHAWARMA & POUTINE,TRUE
3 BROTHERS SHAWARMA & POUTINE,160 RIDEAU STREET,NA,45.42687225,-75.68968964,fast food,regular,old,1,20180628,25,160 RIDEAU,3 BROTHERS SHAWARMA & POUTINE,TRUE
3 BROTHERS SHAWARMA & POUTINE,530 RIDEAU STREET,NA,45.43188858,-75.6778717,fast food,regular,old,1,20180628,25,530 RIDEAU,3 BROTHERS SHAWARMA & POUTINE,FALSE
3 For 1 Pizza,"62 Main Street, Ottawa K1S 1B3",+1 (613) 565-0341,45.4126166667,-75.6802138889,Restaurant,Dine Out,new,NA,NA,NA,62 MAIN,3 FOR 1 PIZZA,FALSE
3 Nineteen Food & Drink,"319 Rideau Street, Ottawa, ON K1N 5Y4",NA,45.429383,-75.6848093,restaurant,regular,old,0,20180710,NA,319 RIDEAU,3 NINETEEN FOOD & DRINK,FALSE
3 Sisters Bakeshop,"2211 Arch St, Ottawa K1G 2H5",+1 (613) 695-9122,45.387964,-75.6456,Restaurant,Dine Out,new,NA,NA,NA,2211 ARCH,3 SISTERS BAKESHOP,FALSE
3 SISTERS CAFE,2211 ARCH STREET,NA,45.38980865,-75.63038635,fast food,regular,old,0,20180706,400,2211 ARCH,3 SISTERS CAFE,FALSE
35th Street Market Cafe,"Algonquin College, Building R, 1385 Woodroffe Avenue, Ottawa K2G 1V8",+1 (613) 727-4723,45.351719,-75.756053,Restaurant,Dine Out,new,NA,NA,NA,NA,35TH STREET MARKET CAFE,FALSE
36 Pho Viet Cuisine,"1600 Merivale Road, Ottawa K2G 3K3",+1 (613) 228-6786,45.349475,-75.7333916667,Restaurant,Dine Out,new,NA,NA,NA,1600 MERIVALE,36 PHO VIET CUISINE,FALSE
73 NORTH RESTAURANT & LOUNGE,73 SPARKS STREET,NA,45.42356873,-75.69667053,restaurant,regular,old,0,20180706,NA,73 SPARKS,73 NORTH RESTAURANT & LOUNGE,FALSE
A & R Breakfast & Lunch Cafe,"Fuller Building, 75 Albert Street, Lower Level, Ottawa K1P 5E7",+1 (613) 695-6100,45.422202,-75.695296,Restaurant,Dine Out,new,NA,NA,NA,NA,A & R BREAKFAST & LUNCH CAFE,FALSE
A & W,100 BAYSHORE DRIVE,NA,45.34794617,-75.80560303,fast food,regular,old,1,20180628,236,100 BAYSHORE,A & W,FALSE
A & W,110 PLACE D'ORLEANS DRIVE,NA,45.47758102,-75.51496124,fast food,regular,old,1,20180628,236,110 PLACE,A & W,FALSE
A & W,1200 ST LAURENT BOULEVARD,NA,45.42296219,-75.63809204,fast food,regular,old,1,20180628,236,1200 ST,A & W,FALSE
A & W,"1660 Heron Rd, Ottawa, ON",NA,45.3799448,-75.6439694,fast food,regular,old,1,20180628,236,1660 HERON,A & W,FALSE
A & W,1830 MERIVALE ROAD,NA,45.33581543,-75.72525787,fast food,regular,old,1,20180628,236,1830 MERIVALE,A & W,FALSE
A & W,1980 OGILVIE ROAD,NA,45.43198013,-75.60961914,fast food,regular,old,1,20180628,236,1980 OGILVIE,A & W,FALSE
A & W,2121 CARLING AVENUE,NA,45.37285614,-75.76835632,fast food,regular,old,1,20180628,236,2121 CARLING,A & W,FALSE
A & W,2870 GIBFORD DRIVE,NA,45.3433342,-75.66921234,fast food,regular,old,1,20180628,236,2870 GIBFORD,A & W,FALSE
A & W,300 EAGLESON ROAD,NA,45.30237579,-75.87768555,fast food,regular,old,1,20180628,236,300 EAGLESON,A & W,FALSE
A & W,3228 HAWTHORNE ROAD,NA,45.38154984,-75.60205841,fast food,regular,old,1,20180628,236,3228 HAWTHORNE,A & W,FALSE
A & W,"3895 Innes Rd, Orléans, ON K1C 1T1",NA,45.4474211,-75.5265987,fast food,regular,old,1,20180628,236,3895 INNES,A & W,FALSE
A & W,"405 March Rd, Kanata, ON K2K 1K0",NA,45.337682,-75.9125411,fast food,regular,old,1,20180628,236,405 MARCH,A & W,FALSE
A & W,41 EDGEWATER STREET,NA,45.29696274,-75.90032196,fast food,regular,old,1,20180628,236,41 EDGEWATER,A & W,FALSE
A & W,"4255 Strandherd Dr, Ottawa, ON K2J 6E5",NA,45.2695142,-75.7811998,fast food,regular,old,1,20180628,236,4255 STRANDHERD,A & W,FALSE
A & W,50 RIDEAU STREET,NA,45.42440033,-75.69008636,fast food,regular,old,1,20180628,236,50 RIDEAU,A & W,FALSE
A & W,6305 HAZELDEAN ROAD,NA,45.26743698,-75.94033051,fast food,regular,old,1,20180628,236,6305 HAZELDEAN,A & W,FALSE
A&W,"100 Bayshore Dr, (Food Court) #FH 14, Ottawa, ON, K2B 8C1",NA,45.347634,-75.806354,Fast Food,Regular,new,NA,NA,NA,100 BAYSHORE,A&W,FALSE
A&W,"1017, Chemin de Masson, Gatineau, QC, J8M 1R4",NA,45.55848,-75.41951,Fast Food,Regular,new,NA,NA,NA,1017 CHEMIN,A&W,FALSE
A&W,"110 Place D'Orleans Dr, (Food Court), Orleans, ON, K1C 2L9",NA,45.47854,-75.515089,Fast Food,Regular,new,NA,NA,NA,110 PLACE,A&W,FALSE
A&W,"1100, boulevard Maloney Ouest, (Foire alimentaire), Gatineau, QC, J8T 6G3",NA,45.47632,-75.697962,Fast Food,Regular,new,NA,NA,NA,1100 BOULEVARD,A&W,FALSE
A&W,"1200 St Laurent Blvd, (Food Court), Ottawa, ON, K1K 3B8",NA,45.421675,-75.63921,Fast Food,Regular,new,NA,NA,NA,1200 ST,A&W,FALSE
A&W,"1454 Merivale Road, Ottawa, ON, K2E 5P1",NA,45.362571,-75.733921,Fast Food,Regular,new,NA,NA,NA,1454 MERIVALE,A&W,FALSE
A&W,"1510, boulevard Greber, Gatineau, QC, J8R 0E1",NA,45.503424,-75.678106,Fast Food,Regular,new,NA,NA,NA,1510 BOULEVARD,A&W,FALSE
A&W,"155 Queen St, Ottawa, ON, K1A 1K2",NA,45.421533,-75.699217,Fast Food,Regular,new,NA,NA,NA,155 QUEEN,A&W,FALSE
A&W,"1660 Heron Road, Ottawa, ON, K1V 2P5",NA,45.38003,-75.64183,Fast Food,Regular,new,NA,NA,NA,1660 HERON,A&W,FALSE
A&W,"1830 Merivale Road, Ottawa K2G 1E3",+1 (613) 228-9714,45.3355333333,-75.7253722222,Restaurant,Dine Out,new,NA,NA,NA,1830 MERIVALE,A&W,FALSE
A&W,"1980 Ogilvie Road, (Food Court), Gloucester, ON, K1J 9L3",NA,45.431409,-75.610349,Fast Food,Regular,new,NA,NA,NA,1980 OGILVIE,A&W,FALSE
A&W,"2121 Carling Ave, (Food Court), Ottawa, ON, K2A 1H2",NA,45.373161,-75.768719,Fast Food,Regular,new,NA,NA,NA,2121 CARLING,A&W,FALSE
A&W,"245 Daniel Street South, Arnprior, ON, K7S 3K5",NA,45.42567,-76.36458,Fast Food,Regular,new,NA,NA,NA,245 DANIEL,A&W,FALSE
A&W,"2870 Gibford Drive, Hunt Club, Ottawa, ON, K1V 2R4",NA,45.342821,-75.667645,Fast Food,Regular,new,NA,NA,NA,2870 GIBFORD,A&W,FALSE
A&W,"30 Highbury Park Drive, Greenbank & Highbury, Barrhaven, ON, K2J 6K8",NA,45.277,-75.75022,Fast Food,Regular,new,NA,NA,NA,30 HIGHBURY,A&W,FALSE
A&W,"305 Colonade Drive, RR 3, Kemptville, ON, K0G 1J0",NA,45.029296,-75.632465,Fast Food,Regular,new,NA,NA,NA,305 COLONADE,A&W,FALSE
A&W,"320, boulevard St-Joseph, (Foire alimentaire), Gatineau, QC, J8Y 3Y8",NA,45.441955,-75.73192,Fast Food,Regular,new,NA,NA,NA,320 BOULEVARD,A&W,FALSE
A&W,"3228 Hawthorne Rd, Ottawa, ON, K1G 3W9",NA,45.381524,-75.602099,Fast Food,Regular,new,NA,NA,NA,3228 HAWTHORNE,A&W,FALSE
A&W,"3895 Innes Road, Ottawa K1C 1T1",+1 (613) 837-9000,45.453641,-75.510362,Restaurant,Dine Out,new,NA,NA,NA,3895 INNES,A&W,FALSE
A&W,"395, montée Paiement, Petro Canada, Gatineau, QC, J8P 6M7",NA,45.490099,-75.676293,Fast Food,Regular,new,NA,NA,NA,395 MONTÉE,A&W,FALSE
A&W,"405 March Road, Kanata, ON, K2K 0K1",NA,45.33867,-75.9122,Fast Food,Regular,new,NA,NA,NA,405 MARCH,A&W,FALSE
A&W,"41 Edgewater Street, Ottawa K2L 1V7",+1 (613) 836-9595,45.2968969,-75.9010004,Restaurant,Dine Out,new,NA,NA,NA,41 EDGEWATER,A&W,FALSE
A&W,"4255 Strandherd Drive, Barrhaven, ON, K2J 6E5",NA,45.26974,-75.78102,Fast Food,Regular,new,NA,NA,NA,4255 STRANDHERD,A&W,FALSE
A&W,"479 Chemin Vanier, Gatineau, QC, J9J 1Z4",NA,45.41775,-75.80899,Fast Food,Regular,new,NA,NA,NA,479 CHEMIN,A&W,FALSE
A&W,"50 Rideau Street, (Food Court) Unit #FC013, Ottawa, ON, K1N 9J7",NA,45.4255,-75.69222,Fast Food,Regular,new,NA,NA,NA,50 RIDEAU,A&W,FALSE
A&W,"506 McNeely Avenue, Carleton Place, ON, K7C 0A7",NA,45.131587,-76.120138,Fast Food,Regular,new,NA,NA,NA,506 MCNEELY,A&W,FALSE
A&W,"6045 Bank Street, Greely, ON, K4P 0G5",NA,45.264158,-75.555914,Fast Food,Regular,new,NA,NA,NA,6045 BANK,A&W,FALSE
A&W,"6305 Hazeldean Rd, Stittsville, ON, K2S 0T2",NA,45.26563,-75.94136,Fast Food,Regular,new,NA,NA,NA,6305 HAZELDEAN,A&W,FALSE
A&W,"635 Principale Street, Casselman, ON, K0A 1M0",NA,45.30689,-75.08214,Fast Food,Regular,new,NA,NA,NA,635 PRINCIPALE,A&W,FALSE
A&W,"7 - 2016 Ogilvie Road, Ottawa, ON, K1J 6M6",NA,45.43392,-75.612465,Fast Food,Regular,new,NA,NA,NA,NA,A&W,FALSE
AAHAR-THE TASTE OF INDIA,727 CHURCHILL AVENUE,NA,45.3812027,-75.74688721,restaurant,regular,old,0,20180706,NA,727 CHURCHILL,AAHAR-THE TASTE OF INDIA,FALSE
Aahar Authentic Indian Cuisine,1573 Alta Vista Drive,+1 (613) 422-6644: +1 (613) 422-6644,45.408415,-75.658229,Restaurant,Dine Out,new,NA,NA,NA,1573 ALTA,AAHAR AUTHENTIC INDIAN CUISINE,FALSE
Aahar The Taste of India,"1573 Alta Vista Drive, Ottawa, ON K1G 0E9",NA,45.4084112,-75.6574298,restaurant,regular,old,1,20180710,NA,1573 ALTA,AAHAR THE TASTE OF INDIA,FALSE
Aahar The Taste Of India,727 Churchill Avenue North K1Z 5G7,+1 (613) 688-4444: +1 (613) 688-4444,45.3812,-75.74684,Restaurant,Dine Out,new,NA,NA,NA,727 CHURCHILL,AAHAR THE TASTE OF INDIA,TRUE
Aahar The Taste Of India,"727 Churchill Avenue N, Ottawa, ON K1Z 5G7",NA,45.3812179,-75.7468804,restaurant,regular,old,1,20180710,NA,727 CHURCHILL,AAHAR THE TASTE OF INDIA,TRUE
Absinthe,"1208 Wellington Street West, Ottawa K1Y 2Z8",+1 (613) 761-1138,45.4002222222,-75.7305972222,Restaurant,Dine Out,new,NA,NA,NA,1208 WELLINGTON,ABSINTHE,TRUE
Absinthe,"1208 Wellington Street West, Ottawa, ON K1Y 2Z7, Canada",NA,45.400233,-75.730439,restaurant,nightlife,old,0,201806,NA,1208 WELLINGTON,ABSINTHE,TRUE
Absolute Comedy,"412 Preston Street, Ottawa, ON, Canada",NA,45.40078,-75.70972,nightlife,nightlife,old,0,20180706,NA,412 PRESTON,ABSOLUTE COMEDY,FALSE
Ad Mare,"150 Slater Street, Ottawa, ON K1P 5M8",NA,45.4201613,-75.6974389,restaurant,regular,old,0,20180710,NA,150 SLATER,AD MARE,FALSE
Adam's Sausages,"1437 Michael Street, Ottawa K1B 3R3",+1 (613) 749-3336,45.415925,-75.6284166667,Restaurant,Dine Out,new,NA,NA,NA,1437 MICHAEL,ADAM'S SAUSAGES,FALSE
Afghani Kabob Express,"249 Bank Street, Ottawa K2P 1W9",+1 (613) 593-8880,45.4164287,-75.6972459,Restaurant,Dine Out,new,NA,NA,NA,249 BANK,AFGHANI KABOB EXPRESS,TRUE
Afghani Kabob Express,"249 Bank Street, Ottawa, ON K2P 1X2",NA,45.4163796,-75.6970805,restaurant,regular,old,0,20180710,NA,249 BANK,AFGHANI KABOB EXPRESS,TRUE
AGAVE GRILL,1331 WELLINGTON STREET WEST,NA,45.39870834,-75.73705292,restaurant,regular,old,0,20180706,NA,1331 WELLINGTON,AGAVE GRILL,FALSE
Agop's Bakery,"304 McArthur Avenue, Ottawa K1L 6P2",+1 (613) 744-6000,45.4316333333,-75.6556861111,Restaurant,Dine Out,new,NA,NA,NA,304 MCARTHUR,AGOP'S BAKERY,FALSE
Ahora,"307 Dalhousie Street, Ottawa K1N 8Y3",+1 (613) 562-2081,45.42945,-75.6914444444,Restaurant,Dine Out,new,NA,NA,NA,307 DALHOUSIE,AHORA,FALSE
Ahora Mexican Cuisine,"307 Dalhousie Street, Ottawa, ON K1N 7E8",NA,45.4294137,-75.6914195,restaurant,regular,old,0,20180710,NA,307 DALHOUSIE,AHORA MEXICAN CUISINE,FALSE
Aiyara Thai Cuisine,"1590 Walkley Road, Ottawa K1V 6P5",+1 (613) 526-1703,45.377138,-75.646227,Restaurant,Dine Out,new,NA,NA,NA,1590 WALKLEY,AIYARA THAI CUISINE,TRUE
AIYARA THAI CUISINE,1590 WALKLEY ROAD,NA,45.37683487,-75.64617157,restaurant,regular,old,0,20180706,NA,1590 WALKLEY,AIYARA THAI CUISINE,TRUE
Al's Diner,"834 Clyde Avenue, Ottawa K1Z 5A1",+1 (613) 761-7488,45.3779722222,-75.749588888900007,Restaurant,Dine Out,new,NA,NA,NA,834 CLYDE,AL'S DINER,TRUE
AL'S DINER,834 CLYDE AVENUE,NA,45.37792587,-75.74959564,restaurant,regular,old,0,20180706,NA,834 CLYDE,AL'S DINER,TRUE
AL'S STEAK HOUSE,327 ELGIN STREET,NA,45.41603851,-75.68868256,restaurant,regular,old,0,20180706,NA,327 ELGIN,AL'S STEAK HOUSE,FALSE
Al's Steakhouse,"327 Elgin Street, Ottawa K2P 1M5",+1 (613) 233-7111,45.416173,-75.688656,Restaurant,Dine Out,new,NA,NA,NA,327 ELGIN,AL'S STEAKHOUSE,FALSE
AL-OUMARA MEAT SHOP,25 TAPIOLA CRESCENT,NA,45.36384583,-75.64667511,fast food,regular,old,0,20180706,453,25 TAPIOLA,AL-OUMARA MEAT SHOP,FALSE
Al Basha Shawarma,"233 Laurier Avenue East, Ottawa K1N 6P1",+1 (613) 695-4900,45.4260895,-75.6814821,Restaurant,Dine Out,new,NA,NA,NA,233 LAURIER,AL BASHA SHAWARMA,TRUE
AL BASHA SHAWARMA,233 LAURIER AVENUE EAST,NA,45.42604446,-75.681472780000007,fast food,regular,old,0,20180706,311,233 LAURIER,AL BASHA SHAWARMA,TRUE
Al Noor Bakery,"70 Wylie Avenue, Ottawa K2B 6M4",+1 (613) 829-2253,45.354675,-75.8066777778,Restaurant,Dine Out,new,NA,NA,NA,70 WYLIE,AL NOOR BAKERY,FALSE
Aladdin,"1020 St. Laurent Boulevard, Ottawa K1K 4S1",+1 (613) 742-4244,45.4278972222,-75.63955,Restaurant,Dine Out,new,NA,NA,NA,1020 ST,ALADDIN,FALSE
Aladdin Convenience & Bakery,"1801 Carling Avenue, Ottawa K2A 1C9",+1 (613) 728-5331,45.3773416667,-75.7548833333,Restaurant,Dine Out,new,NA,NA,NA,1801 CARLING,ALADDIN CONVENIENCE & BAKERY,FALSE
Aladdin Pizza,"272 Montreal Road, Ottawa K1L 6C3",+1 (613) 746-8888,45.4366916667,-75.65995,Restaurant,Dine Out,new,NA,NA,NA,272 MONTREAL,ALADDIN PIZZA,FALSE
ALADDIN PIZZERIA,274 MONTREAL ROAD,NA,45.4366188,-75.65998077,fast food,regular,old,0,20180706,393,274 MONTREAL,ALADDIN PIZZERIA,FALSE
Alex's Food Truck,"1890 Innes Road, Ottawa, ON K1B 3K5",NA,45.4173555556,-75.5996388889,Restaurant,Dine Out,new,NA,NA,NA,1890 INNES,ALEX'S FOOD TRUCK,FALSE
Alhuda Restaurant,"380 Terminal Avenue, Ottawa K1G 0Z3",+1 (613) 859-6840,45.414057,-75.65423,Restaurant,Dine Out,new,NA,NA,NA,380 TERMINAL,ALHUDA RESTAURANT,FALSE
Alice's Village Cafe,"3773 Carp Road, Carp K0A 1L0",+1 (613) 470-2233,45.3460305556,-76.0377805556,Restaurant,Dine Out,new,NA,NA,NA,3773 CARP,ALICE'S VILLAGE CAFE,FALSE
Alice’s Village Cafe,"3773 Carp Road, Ottawa, ON K0A 1L0",NA,45.3458412,-76.0377719,restaurant,regular,old,0,20180726,NA,3773 CARP,ALICE’S VILLAGE CAFE,FALSE
ALIMENTS RINAG FOODS INC.,88 JAMIE AVENUE,NA,45.33623505,-75.71559906,restaurant,regular,old,0,20180706,NA,88 JAMIE,ALIMENTS RINAG FOODS INC.,FALSE
Alirang,"134 Nelson Street, Ottawa K1N 5Y6",+1 (613) 789-2223,45.43045,-75.685107,Restaurant,Dine Out,new,NA,NA,NA,134 NELSON,ALIRANG,FALSE
ALIRANG RESTAURANT,134 NELSON STREET,NA,45.43032837,-75.68482208,restaurant,regular,old,0,20180706,NA,134 NELSON,ALIRANG RESTAURANT,FALSE
Alissar,"1765 St. Laurent Boulevard, Ottawa K1G 3V4",+1 (613) 249-0888,45.4046555556,-75.6258611111,Restaurant,Dine Out,new,NA,NA,NA,1765 ST,ALISSAR,FALSE
ALISSAR LEBANESE CUISINE,1765 ST LAURENT BOULEVARD,NA,45.40476608,-75.62562561,fast food,regular,old,0,20180706,108,1765 ST,ALISSAR LEBANESE CUISINE,FALSE
All Seasons,"1460 Cyrville Road, Ottawa K1B 3L9",+1 (613) 749-6687,45.4201611111,-75.6192333333,Restaurant,Dine Out,new,NA,NA,NA,1460 CYRVILLE,ALL SEASONS,FALSE
Allegro,"422 Preston Street, Ottawa K1S 4N2",+1 (613) 235-7454,45.400292,-75.709513,Restaurant,Dine Out,new,NA,NA,NA,422 PRESTON,ALLEGRO,FALSE
ALLEGRO RESTAURANT,422 PRESTON STREET,NA,45.4002533,-75.70950317,restaurant,regular,old,0,20180706,NA,422 PRESTON,ALLEGRO RESTAURANT,FALSE
ALLIUM,87 HOLLAND AVENUE,NA,45.40077591,-75.73246002,restaurant,regular,old,0,20180706,NA,87 HOLLAND,ALLIUM,FALSE
Allô! Mon Coco,"2277 Riverside Drive, Ottawa, ON K1H 7X6",NA,45.3855413,-75.6774625,restaurant,regular,old,0,20180710,NA,2277 RIVERSIDE,ALLÔ! MON COCO,FALSE
Almonte Pizzeria & Shawarma,"27 Bridge Street, Mississippi Mills K0A 1A0",+1 (613) 461-6161,45.225798,-76.193854,Restaurant,Dine Out,new,NA,NA,NA,27 BRIDGE,ALMONTE PIZZERIA & SHAWARMA,FALSE
AMAYA EXPRESS,50 RIDEAU STREET,NA,45.42472458,-75.68956757,fast food,regular,old,0,20180706,357,50 RIDEAU,AMAYA EXPRESS,FALSE
Amaya Express,"Rideau Centre, 50 Rideau Street, Ottawa K1N 9J7",+1 (613) 695-2444,45.4255824,-75.692568,Restaurant,Dine Out,new,NA,NA,NA,NA,AMAYA EXPRESS,FALSE
Amazon cafe Gelato & Crepes,"4100 Strandherd Drive, Ottawa, ON K2J 0V2",NA,45.2603845,-75.7684158,fast food,regular,old,0,20180726,NA,4100 STRANDHERD,AMAZON CAFE GELATO & CREPES,FALSE
Amberwood Lounge & Eatery,"54 Springbrook Drive, Stittsville, ON K2S 1B9",NA,45.2712729,-75.9237165,restaurant,regular,old,0,20180726,NA,54 SPRINGBROOK,AMBERWOOD LOUNGE & EATERY,FALSE
American Grille,"2400 Alert Road, Ottawa, ON K1V 0R4",NA,45.3279915,-75.6521822,restaurant,nightlife,old,0,20180710,NA,2400 ALERT,AMERICAN GRILLE,FALSE
Amici Caffe,"226 Preston Street, Ottawa K1R 7R2",+1 (613) 233-9666,45.4053166667,-75.7124638889,Restaurant,Dine Out,new,NA,NA,NA,226 PRESTON,AMICI CAFFE,FALSE
AMICI CAFFE,226-1 PRESTON STREET,NA,45.405357359999996,-75.71256256,restaurant,regular,old,0,20180706,NA,2261 PRESTON,AMICI CAFFE,FALSE
Amigo's Sports Bar,"858 Merivale Road, Ottawa K1Z 5Z4",+1 (613) 725-2818,45.385287,-75.732338,Restaurant,Dine Out,new,NA,NA,NA,858 MERIVALE,AMIGO'S SPORTS BAR,TRUE
AMIGO'S SPORTS BAR,"858 Merivale Rd, Ottawa, ON K1Z 5Z4",NA,45.3847873,-75.7328689,restaurant,nightlife,old,0,201806,NA,858 MERIVALE,AMIGO'S SPORTS BAR,TRUE
AMORE SICILIAN GRILL LTEE.,4100 ALBION ROAD,NA,45.31702423,-75.62229156,restaurant,regular,old,0,20180706,NA,4100 ALBION,AMORE SICILIAN GRILL LTEE.,FALSE
Amuse Kitchen & Wine,"500 Eagleson Road, Ottawa K2M 1H4",+1 (613) 880-8883,45.290783,-75.870802,Restaurant,Dine Out,new,NA,NA,NA,500 EAGLESON,AMUSE KITCHEN & WINE,TRUE
Amuse Kitchen & Wine,"500 Eagleson Road, Ottawa, ON K2M 1H4",NA,45.2909203,-75.8706164,restaurant,regular,old,0,20180726,NA,500 EAGLESON,AMUSE KITCHEN & WINE,TRUE
Anabia Cupcakery Café,3570 Strandherd Drive,NA,45.275208,-75.737396,Restaurant,Dine Out,new,NA,NA,NA,3570 STRANDHERD,ANABIA CUPCAKERY CAFÉ,FALSE
Anabia Cupcakes,"3570 Strandherd Drive, Ottawa, ON K2J 5L4",NA,45.2751492,-75.7375557,fast food,coffee shop,old,0,20180726,NA,3570 STRANDHERD,ANABIA CUPCAKES,FALSE
ANDY-CAN CAFETERIA,1111 PRINCE OF WALES DRIVE,NA,45.37615204,-75.70623779,fast food,regular,old,0,20180706,255,1111 PRINCE,ANDY-CAN CAFETERIA,FALSE
ANGELO'S,303 ST PATRICK STREET,NA,45.4316597,-75.69130707,restaurant,regular,old,0,20180706,NA,303 ST,ANGELO'S,FALSE
Angelo's Pizza House,"303 Saint Patrick Street, Ottawa K1N 5K4",+1 (613) 241-4444,45.4316588,-75.6913001,Restaurant,Dine Out,new,NA,NA,NA,303 SAINT,ANGELO'S PIZZA HOUSE,FALSE
Angry Dragonz,"300 River Road, Ottawa K1V 1H2",+1 (613) 627-0013,45.3203458,-75.6907572,Restaurant,Dine Out,new,NA,NA,NA,300 RIVER,ANGRY DRAGONZ,TRUE
Angry Dragonz,"300 River Road, Ottawa, ON K1V 1H2",NA,45.320372,-75.6906756,restaurant,regular,old,0,20180710,NA,300 RIVER,ANGRY DRAGONZ,TRUE
Angry Dragonz Restaurant,"300 River Road, Ottawa K1V 1H2",+1 (613) 627-0013,45.3203505,-75.6928134,Restaurant,Dine Out,new,NA,NA,NA,300 RIVER,ANGRY DRAGONZ RESTAURANT,FALSE
Anna,"91 Holland Avenue, Ottawa K1Y 0Y1",+1 (613) 759-8472,45.4006833333,-75.7324666667,Restaurant,Dine Out,new,NA,NA,NA,91 HOLLAND,ANNA,FALSE
ANNA THAI,91 HOLLAND AVENUE,NA,45.40063477,-75.73232269,restaurant,regular,old,0,20180706,NA,91 HOLLAND,ANNA THAI,FALSE
Anthony's,"1218 Wellington Street West, Ottawa K1Y 2Z8",+1 (613) 695-8669,45.4001527778,-75.7308194444,Restaurant,Dine Out,new,NA,NA,NA,1218 WELLINGTON,ANTHONY'S,FALSE
Anthony’s,"1218 Wellington Street W, Ottawa, ON K1Y 2Z7",NA,45.4000444,-75.7307508,restaurant,regular,old,0,20180710,NA,1218 WELLINGTON,ANTHONY’S,FALSE
Anthony’s Pizza,"753 Bank Street, Ottawa, ON K1S 3V3",NA,45.4041714,-75.6887442,restaurant,regular,old,0,20180710,NA,753 BANK,ANTHONY’S PIZZA,FALSE
Antipazzo Italian Plates and Wine,"1091 Bank Street, Ottawa K1S 0R8",+1 (613) 730-5672,45.3941559,-75.6833199,Restaurant,Dine Out,new,NA,NA,NA,1091 BANK,ANTIPAZZO ITALIAN PLATES AND WINE,FALSE
Aperitivo,"655 Kanata Avenue, Unit L2, Ottawa K2T 1H6",+1 (613) 592-0004,45.3100277778,-75.9096972222,Restaurant,Dine Out,new,NA,NA,NA,655 KANATA,APERITIVO,FALSE
Arby's,"474 Hazledean Road, Ottawa K2L 4E5",+1 (613) 831-3030,45.2973027778,-75.8888388889,Restaurant,Dine Out,new,NA,NA,NA,474 HAZLEDEAN,ARBY'S,FALSE
ARBYS,474 HAZELDEAN ROAD,NA,45.29732895,-75.88865662,fast food,regular,old,0,20180706,50,474 HAZELDEAN,ARBYS,FALSE
ARC LOUNGE,140-1 SLATER STREET,NA,45.42086411,-75.69636536,restaurant,regular,old,0,20180706,NA,1401 SLATER,ARC LOUNGE,FALSE
ARC Lounge,"Arc The Hotel, 140 Slater Street, Ottawa K1P 5H6",+1 (613) 238-9998,45.4205972222,-75.6971138889,Restaurant,Dine Out,new,NA,NA,NA,NA,ARC LOUNGE,FALSE
ARIANA KABOB RESTAURANT,2677 ALTA VISTA,NA,45.37246323,-75.66225433,restaurant,regular,old,0,20180706,NA,2677 ALTA,ARIANA KABOB RESTAURANT,FALSE
Ariana Restaurant,"2677 Alta Vista Drive, Ottawa K1V 7T4",+1 (613) 731-0666,45.3734558,-75.6625008,Restaurant,Dine Out,new,NA,NA,NA,2677 ALTA,ARIANA RESTAURANT,FALSE
Ariey,"419 McArthur Avenue, Ottawa K1K 1G5",+1 (613) 695-5594,45.432454,-75.647651,Restaurant,Dine Out,new,NA,NA,NA,419 MCARTHUR,ARIEY,FALSE
Arlington Five,"5 Arlington Street, Ottawa K2P 1C1",+1 (613) 233-7959,45.410078,-75.692872,Restaurant,Dine Out,new,NA,NA,NA,5 ARLINGTON,ARLINGTON FIVE,TRUE
Arlington Five,"5 Arlington Avenue, Ottawa, ON K2P 1C1",NA,45.4101361,-75.6929269,restaurant,regular,old,0,20180710,NA,5 ARLINGTON,ARLINGTON FIVE,TRUE
Armada Lounge,"23 York St, Ottawa, ON K1N 5S7",NA,45.4281421,-75.6945443,restaurant,nightlife,old,0,201806,NA,23 YORK,ARMADA LOUNGE,FALSE
Aroma Espresso Bar,Unit 109 — 200 Marché Way K1S 3W7,+1 (613) 223-4747,45.400391,-75.683628,Restaurant,Dine Out,new,NA,NA,NA,NA,AROMA ESPRESSO BAR,FALSE
Aroma Meze,"239 Nepean Street, Ottawa K2P 0B7",+1 (613) 232-1377,45.4167027778,-75.6995,Restaurant,Dine Out,new,NA,NA,NA,239 NEPEAN,AROMA MEZE,FALSE
AROMA PIZZA,6004 VOYAGEUR DRIVE,NA,45.47577286,-75.54830933,fast food,regular,old,0,20180706,45,6004 VOYAGEUR,AROMA PIZZA,FALSE
Aroma Pizzeria,"6004 Voyageur Drive, Ottawa K1C 2K1",+1 (613) 824-9400,45.47585,-75.5482166667,Restaurant,Dine Out,new,NA,NA,NA,6004 VOYAGEUR,AROMA PIZZERIA,FALSE
AROMA SMALL PLATES & WINE,239 NEPEAN STREET,NA,45.41676712,-75.6995697,restaurant,regular,old,0,20180706,NA,239 NEPEAN,AROMA SMALL PLATES & WINE,FALSE
Art Haven,"200 Kennevale Drive, Ottawa, ON K2J 6B6",NA,45.2653836,-75.7769071,fast food,regular,old,0,20180726,NA,200 KENNEVALE,ART HAVEN,FALSE
Art Is In Bakery,"250 City Centre Avenue, Unit 112, Ottawa K1R 1C7",+1 (613) 695-1226,45.4079805556,-75.7184,Restaurant,Dine Out,new,NA,NA,NA,250 CITY,ART IS IN BAKERY,TRUE
ART IS IN BAKERY,250 CITY CENTRE AVENUE,NA,45.40810013,-75.71859741,restaurant,regular,old,0,20180706,NA,250 CITY,ART IS IN BAKERY,TRUE
ARTA CAFE,425 MCARTHUR ROAD,NA,45.43246841,-75.64689636,fast food,regular,old,0,20180706,59,425 MCARTHUR,ARTA CAFE,FALSE
Arturo's,"49 Beechwood Avenue, Ottawa K1M 1L9",+1 (613) 321-4613,45.440678,-75.67428,Restaurant,Dine Out,new,NA,NA,NA,49 BEECHWOOD,ARTURO'S,FALSE
ARTURO'S RISTORANTE,49 BEECHWOOD AVENUE,NA,45.44012451,-75.6758728,restaurant,regular,old,0,20180706,NA,49 BEECHWOOD,ARTURO'S RISTORANTE,FALSE
ARUM RESTAURANT,512 BANK ST,NA,45.40995026,-75.69242096,restaurant,regular,old,0,20180706,NA,512 BANK,ARUM RESTAURANT,FALSE
ARZ,"St. Laurent Shopping Centre, 1200 St. Laurent Boulevard, Ottawa K1K 3B8",+1 (613) 746-1015,45.422178099999996,-75.6378913,Restaurant,Dine Out,new,NA,NA,NA,NA,ARZ,FALSE
ARZ FINE LEBANESE CUISINE,305-1200 ST LAURENT BOULEVARD,NA,45.42279053,-75.63780212,fast food,regular,old,0,20180706,147,3051200 ST,ARZ FINE LEBANESE CUISINE,FALSE
Asia Garden,"886 Dynes Road, Ottawa K2C 0G9",+1 (613) 224-7343,45.3700111111,-75.7045527778,Restaurant,Dine Out,new,NA,NA,NA,886 DYNES,ASIA GARDEN,TRUE
ASIA GARDEN,886 DYNES ROAD,NA,45.37002563,-75.70450592,fast food,regular,old,0,20180706,89,886 DYNES,ASIA GARDEN,TRUE
ASIA WOK,2026 TENTH LINE ROAD,NA,45.45868683,-75.48806,fast food,regular,old,0,20180706,190,2026 TENTH,ASIA WOK,FALSE
Asian Alley,"8 Byward Market Square, Ottawa, ON K1N 7A1",NA,45.4285258,-75.6936866,restaurant,regular,old,0,20180710,NA,8 BYWARD,ASIAN ALLEY,FALSE
Asian Bistro‎,"646 Principale Street, Casselman K0A 1M0",+1 (613) 764-2999,45.3081805556,-75.0829,Restaurant,Dine Out,new,NA,NA,NA,646 PRINCIPALE,ASIAN BISTRO‎,FALSE
ASIAN CUISINE CLAYPOT,320 QUEEN STREET,NA,45.41898346,-75.70363617,fast food,regular,old,0,20180706,387,320 QUEEN,ASIAN CUISINE CLAYPOT,FALSE
Asian Cuisine Claypot,"Place de Ville, 320 Queen Street, Lower Level, Ottawa K1R 5A3",+1 (613) 695-9200,45.419362,-75.7046,Restaurant,Dine Out,new,NA,NA,NA,NA,ASIAN CUISINE CLAYPOT,FALSE
ASIAN GOURMET,208-111 ALBERT STREET,NA,45.42166901,-75.69737244,fast food,regular,old,1,20180628,464,208111 ALBERT,ASIAN GOURMET,FALSE
ASIAN GOURMET,240 SPARKS STREET,NA,45.42062378,-75.70197296,fast food,regular,old,1,20180628,464,240 SPARKS,ASIAN GOURMET,FALSE
Asian Gourmet,"C.D. Howe Building, 240 Sparks Street, Lower Level, Ottawa K1A 0H5",+1 (613) 567-2607,45.420444,-75.702031,Restaurant,Dine Out,new,NA,NA,NA,NA,ASIAN GOURMET,FALSE
ASIAN PALACE,3320 MCCARTHY ROAD,NA,45.35047913,-75.67110443,fast food,regular,old,0,20180706,376,3320 MCCARTHY,ASIAN PALACE,FALSE
Asian Palace Ottawa,"3320 McCarthy Road, Ottawa",+1 (613) 731-2828,45.351338,-75.670238,Restaurant,Dine Out,new,NA,NA,NA,3320 MCCARTHY,ASIAN PALACE OTTAWA,FALSE
Asian Stars,"1380 Clyde Avenue, Ottawa K2G 1Y7",+1 (613) 695-2288,45.3597916667,-75.7392583333,Restaurant,Dine Out,new,NA,NA,NA,1380 CLYDE,ASIAN STARS,FALSE
Asian Stars Restaurant,"1380 Clyde Avenue, Ottawa, ON K2G 3H9",NA,45.3596531,-75.7393448,restaurant,regular,old,0,20180710,NA,1380 CLYDE,ASIAN STARS RESTAURANT,FALSE
Atari,"297 Dalhousie Street, Ottawa, ON K1N 7E5",+1 (613) 422-8877,45.429728,-75.691734,Restaurant,Dine Out,new,NA,NA,NA,297 DALHOUSIE,ATARI,TRUE
Atari,"297 Dalhousie St, Ottawa, ON K1N 7E5",NA,45.4298565,-75.6917125,restaurant,nightlife,old,0,201806,NA,297 DALHOUSIE,ATARI,TRUE
Atelier,"540 Rochester Street, Ottawa K1A 0E4",+1 (613) 321-3537,45.399558,-75.706405,Restaurant,Dine Out,new,NA,NA,NA,540 ROCHESTER,ATELIER,FALSE
ATELIER INC.,540 ROCHESTER STREET,NA,45.39958572,-75.70648193,restaurant,regular,old,0,20180706,NA,540 ROCHESTER,ATELIER INC.,FALSE
ATHEN'S GRILL,2150 ROBERTSON ROAD,NA,45.32017136,-75.83689117,restaurant,regular,old,0,20180706,NA,2150 ROBERTSON,ATHEN'S GRILL,FALSE
Athens Grill,"150 Robertson Road, Ottawa K2H 8R2",+1 (613) 288-0134,45.3193027778,-75.8365472222,Restaurant,Dine Out,new,NA,NA,NA,150 ROBERTSON,ATHENS GRILL,FALSE
Atomic Rooster,"303 Bank Street, Ottawa K2P 1X7",+1 (613) 569-1000,45.4150305556,-75.6958305556,Restaurant,Dine Out,new,NA,NA,NA,303 BANK,ATOMIC ROOSTER,TRUE
ATOMIC ROOSTER,303 BANK STREET,NA,45.41502762,-75.69594574,restaurant,regular,old,0,20180706,NA,303 BANK,ATOMIC ROOSTER,TRUE
Aulde Dubliner & Pour House,"62 William Street, Ottawa K1N 7A3",+1 (613) 241-0066,45.427027,-75.691808,Restaurant,Dine Out,new,NA,NA,NA,62 WILLIAM,AULDE DUBLINER & POUR HOUSE,FALSE
Authentic Vietnamese Pho House,"Greenbank Hunt Club Centre, 250 Greenbank Road, Ottawa K2H 1E9",+1 (613) 695-8388,45.3252666667,-75.7795416667,Restaurant,Dine Out,new,NA,NA,NA,NA,AUTHENTIC VIETNAMESE PHO HOUSE,FALSE
AUTHENTIC VIETNAMESE PHO HOUSE,250-2A GREENBANK ROAD,NA,45.32448196,-75.78009033,restaurant,regular,old,0,20180706,NA,NA,AUTHENTIC VIETNAMESE PHO HOUSE,FALSE
Avant-Garde Bar,"135 1/2 Besserer Street, Ottawa K1N 6A7",+1 (613) 321-8908,45.426649,-75.688948,Restaurant,Dine Out,new,NA,NA,NA,135 12,AVANT-GARDE BAR,FALSE
Avant Garde Bar And Gift Store,"135 Besserer Street, Ottawa, ON K1N 6A7, Canada",NA,45.426756,-75.688542,restaurant,nightlife,old,0,201806,NA,135 BESSERER,AVANT GARDE BAR AND GIFT STORE,FALSE
B Cafe,"525 Legget Drive, Kanata, ON K2K 2W2",NA,45.3482179,-75.9182498,fast food,regular,old,0,20180726,NA,525 LEGGET,B CAFE,FALSE
Baan Thai,"261 Centrepointe Drive, Ottawa K2G 6E8",+1 (613) 226-7604,45.3390388889,-75.7715833333,Restaurant,Dine Out,new,NA,NA,NA,261 CENTREPOINTE,BAAN THAI,FALSE
BAAN THAI RESTAURANT,261 CENTREPOINTE DRIVE,NA,45.33906937,-75.77165985,restaurant,regular,old,0,20180706,NA,261 CENTREPOINTE,BAAN THAI RESTAURANT,FALSE
Bab el Hara Cafe,"1818 Bank Street, Ottawa K1V 7Y6",+1 (343) 700-1442,45.3714435,-75.6641326,Restaurant,Dine Out,new,NA,NA,NA,1818 BANK,BAB EL HARA CAFE,FALSE
Bab El Hara Cafe and Shawarma,"257 McArthur Avenue, Ottawa K1L 6P3",+1 (613) 695-8955,45.4317,-75.658334,Restaurant,Dine Out,new,NA,NA,NA,257 MCARTHUR,BAB EL HARA CAFE AND SHAWARMA,FALSE
Babbo's Cucina,"1160 Beaverwood Road, Ottawa K4M 1L6",+1 (613) 692-6100,45.2238388889,-75.6847833333,Restaurant,Dine Out,new,NA,NA,NA,1160 BEAVERWOOD,BABBO'S CUCINA,FALSE
Babi’s Restaurant,"21 Nadolny Sachs Private, Ottawa, ON K2A 1R9",NA,45.3759104,-75.7517995,restaurant,regular,old,0,20180710,NA,21 NADOLNY,BABI’S RESTAURANT,FALSE
Babylon,"317 Bank Street, Ottawa K2P 1X9",+1 (613) 594-0003,45.414536,-75.695528,Restaurant,Drinks and Nightlife,new,NA,NA,NA,317 BANK,BABYLON,TRUE
Babylon,"317 Bank Street, Ottawa, ON K2P 1X7, Canada",NA,45.414637,-75.695675,nightlife,nightlife,old,0,20180706,NA,317 BANK,BABYLON,TRUE
Babylon Cafe,"270 Albert Street, Floor B1, Ottawa K1P 5G8",+1 (613) 565-2233,45.419416,-75.701338,Restaurant,Dine Out,new,NA,NA,NA,270 ALBERT,BABYLON CAFE,FALSE
Bac à Frites,"University of Ottawa, 56 University Private, Ottawa K1N 6N5",+1 (613) 234-5454,45.423698,-75.684706,Restaurant,Dine Out,new,NA,NA,NA,NA,BAC À FRITES,FALSE
BACKDROP,160 METCALFE STREET,NA,45.41939926,-75.69456482,restaurant,regular,old,0,20180706,NA,160 METCALFE,BACKDROP,FALSE
Bagan Indian Food,"1980 Ogilvie Road, Gloucester K1J 9L3",+1 (613) 695-9220,45.4320111111,-75.6098333333,Restaurant,Dine Out,new,NA,NA,NA,1980 OGILVIE,BAGAN INDIAN FOOD,FALSE
BAGEL BAGEL,1616 MICHAEL STREET,NA,45.40927505,-75.62559509,fast food,regular,old,0,20180706,405,1616 MICHAEL,BAGEL BAGEL,FALSE
BAGEL RUN,3-2026 TENTH LINE ROAD,NA,45.45855331,-75.48799133,fast food,regular,old,0,20180706,328,32026 TENTH,BAGEL RUN,FALSE
Baja Burger Shack,"100 Greenview Avenue, Ottawa, ON K2B 8J8",NA,45.364223,-75.8019676,restaurant,regular,old,0,20180710,NA,100 GREENVIEW,BAJA BURGER SHACK,FALSE
Baja Burger Shack,"Britannia Beach, 100 Greenview Avenue, Ottawa K2B 8J8",+1 (613) 614-2233,45.3643722222,-75.801675,Restaurant,Dine Out,new,NA,NA,NA,NA,BAJA BURGER SHACK,FALSE
BAJA Grill,"1001 Queen Elizabeth Drive, Ottawa, ON K1S 5K7",NA,45.3964955,-75.7056623,restaurant,regular,old,0,20180710,NA,1001 QUEEN,BAJA GRILL,FALSE
Baja Grill,"Dows Lake Pavillion, 1001 Queen Elizabeth Drive, Ottawa K1S 5K7",+1 (613) 234-8156,45.3963486,-75.7057019,Restaurant,Dine Out,new,NA,NA,NA,NA,BAJA GRILL,FALSE
Baker's,"Carleton University, University Centre, 1125 Colonel By Drive, Fourth Floor, Ottawa K1S 5B6",+1 (613) 520-5635,45.3836222222,-75.69725,Restaurant,Dine Out,new,NA,NA,NA,NA,BAKER'S,FALSE
Baker Bob's,"74 Little Bridge Street, Mississippi Mills K0A 1A0",+1 (613) 256-7674,45.225589,-76.195465,Restaurant,Dine Out,new,NA,NA,NA,74 LITTLE,BAKER BOB'S,FALSE
BAKER STREET,385 RICHMOND ROAD,NA,45.3912735,-75.75601196,restaurant,regular,old,0,20180706,NA,385 RICHMOND,BAKER STREET,FALSE
Baker Street Cafe,"385 Richmond Road, Ottawa K2A 0E7",+1 (613) 761-7171,45.3912388889,-75.7559361111,Restaurant,Dine Out,new,NA,NA,NA,385 RICHMOND,BAKER STREET CAFE,FALSE
BALTYK DELICATESSEN,935 CARLING ROAD,NA,45.395504,-75.71327972,fast food,regular,old,0,20180706,256,935 CARLING,BALTYK DELICATESSEN,FALSE
BAMBU RESTAURANT,3993 RIVERSIDE DRIVE,NA,45.33287048,-75.69261169,restaurant,regular,old,0,20180706,NA,3993 RIVERSIDE,BAMBU RESTAURANT,FALSE
Bambú Restaurant,"3993 Riverside Drive, Ottawa K1V 1E5",+1 (613) 738-8800,45.3329111111,-75.6927111111,Restaurant,Dine Out,new,NA,NA,NA,3993 RIVERSIDE,BAMBÚ RESTAURANT,FALSE
Banc Sushi,"919 Montreal Road, Ottawa K1K 0S6",+1 (613) 749-0943,45.4468722222,-75.6289888889,Restaurant,Dine Out,new,NA,NA,NA,919 MONTREAL,BANC SUSHI,TRUE
BANC SUSHI,919 MONTREAL ROAD,NA,45.44704056,-75.62901306,restaurant,regular,old,0,20180706,NA,919 MONTREAL,BANC SUSHI,TRUE
Bangkok Thai Garden,"370 Dalhousie Street, Ottawa K1N 7G3",+1 (613) 789-1888,45.427469,-75.690255,Restaurant,Dine Out,new,NA,NA,NA,370 DALHOUSIE,BANGKOK THAI GARDEN,TRUE
BANGKOK THAI GARDEN,370 DALHOUSIE STREET,NA,45.42755127,-75.69026947,restaurant,regular,old,0,20180706,NA,370 DALHOUSIE,BANGKOK THAI GARDEN,TRUE
BANH MI MY HANG VIETNAMESE SUBMARINE & FAST FOOD,788A SOMERSET STREET WEST,NA,45.40969849,-75.70996857,fast food,regular,old,0,20180706,197,NA,BANH MI MY HANG VIETNAMESE SUBMARINE & FAST FOOD,FALSE
Bap By Raon Kitchen,"124 Bank Street, Ottawa, ON K1P 6E5",NA,45.4193147,-75.7004497,restaurant,nightlife,old,0,20180710,NA,124 BANK,BAP BY RAON KITCHEN,FALSE
Bar Acuda,"Mooney's Bay Beach, 2926 Riverside Drive, Ottawa K1V 8W6",+1 (613) 247-4883,45.367959,-75.690762,Restaurant,Dine Out,new,NA,NA,NA,NA,BAR ACUDA,FALSE
Bar Burrito South Nepean,"280 West Hunt Club Road, Unit 3, Ottawa",+1 (613) 225-8777,45.339527,-75.712035,Restaurant,Dine Out,new,NA,NA,NA,280 WEST,BAR BURRITO SOUTH NEPEAN,FALSE
Bar laurel,"1087 Wellington St W, Ottawa, ON K1Y 2Y4, Canada",+1 613 695 5558,45.403145,-75.725589,Restaurant,Dine Out,new,NA,NA,NA,1087 WELLINGTON,BAR LAUREL,TRUE
Bar Laurel,"1087 Wellington St W, Ottawa, ON K1Y 2Y4",NA,45.403213,-75.7257406,restaurant,nightlife,old,0,201806,NA,1087 WELLINGTON,BAR LAUREL,TRUE
Bar Lupulus,"1242 Wellington St W, Ottawa, ON K1Y 3A4",NA,45.3994489,-75.7322566,restaurant,nightlife,old,0,201806,NA,1242 WELLINGTON,BAR LUPULUS,FALSE
Bar Robo,692 Somerset Street West K1R 6P4,+1 (613) 233-7626,45.411003245,-75.706646244,Restaurant,Dine Out,new,NA,NA,NA,692 SOMERSET,BAR ROBO,TRUE
Bar Robo,"692 Somerset Street W, Ottawa, ON K1R 6P3",NA,45.4110151,-75.7064602,fast food,coffee shop,old,0,20180726,NA,692 SOMERSET,BAR ROBO,TRUE
Barbarella's,"340 Queen, Ottawa, ON K1R 5A5, Canada",NA,45.418528,-75.705315,restaurant,nightlife,old,0,201806,NA,340 QUEEN,BARBARELLA'S,FALSE
BARBURRITO,100 BAYSHORE DRIVE,NA,45.34756088,-75.80564117,fast food,regular,old,0,20180706,24,100 BAYSHORE,BARBURRITO,FALSE
BarBurrito,"280 West Hunt Club Road, Unit 2-3, Ottawa K2E 1A5",+1 (613) 241-1234,45.339524,-75.712045,Restaurant,Dine Out,new,NA,NA,NA,280 WEST,BARBURRITO,FALSE
BarBurrito - Hunt Club,"280 W Hunt Club Rd, Ottawa, ON K2E 1A5",NA,45.3395459,-75.711934,fast food,regular,old,0,20180726,NA,280 W,BARBURRITO - HUNT CLUB,FALSE
Barefax,"27 York Street, Ottawa, ON K1N 9J6, Canada",NA,45.427874,-75.694013,restaurant,nightlife,old,0,201806,NA,27 YORK,BAREFAX,FALSE
BARLEY MOW,"1060 Bank Street, Ottawa, ON K1S 3W9",NA,45.349146,-75.924883,restaurant,nightlife,old,1,201806,NA,1060 BANK,BARLEY MOW,FALSE
BARLEY MOW,"1160 Carp Road, Stittsville, ON K2S 0T2",NA,45.2683062,-75.9403861,restaurant,nightlife,old,1,201806,NA,1160 CARP,BARLEY MOW,FALSE
BARLEY MOW,"1481 Greenbank Road, Ottawa, ON K2J 4Y6",NA,45.2740604,-75.7479788,restaurant,nightlife,old,1,201806,NA,1481 GREENBANK,BARLEY MOW,FALSE
BARLEY MOW,"1541 Merivale Rd, Ottawa ON, K2G 5W1",NA,45.3557643,-75.7349647,restaurant,nightlife,old,1,201806,NA,1541 MERIVALE,BARLEY MOW,FALSE
BARLEY MOW,"2034 Tenth Line Road, Ottawa, ON K4A 4X4",NA,45.4584282,-75.4868796,restaurant,nightlife,old,1,201806,NA,2034 TENTH,BARLEY MOW,FALSE
BARLEY MOW,"399 Richmond Road, Ottawa, ON K2A 0E9",NA,45.3911465,-75.7565668,restaurant,nightlife,old,1,201806,NA,399 RICHMOND,BARLEY MOW,FALSE
BARLEY MOW,"700 March Road, Kanata, ON K2K 2R9",NA,45.3501933,-75.9245944,restaurant,nightlife,old,1,201806,NA,700 MARCH,BARLEY MOW,FALSE
Barney's Pizza & Sub,"2843 Dumaurier Avenue, Ottawa K2B 7W3",+1 (613) 596-6666,45.350575,-75.7935194444,Restaurant,Dine Out,new,NA,NA,NA,2843 DUMAURIER,BARNEY'S PIZZA & SUB,FALSE
BARNEYS PIZZA & CONVENIENCE,2843 DUMAURIER AVENUE,NA,45.35053635,-75.79363251,fast food,regular,old,0,20180706,254,2843 DUMAURIER,BARNEYS PIZZA & CONVENIENCE,FALSE
Barrhaven Asian Dragon,"Barrhaven Town Centre, 3777 Strandherd Drive, Ottawa K2J 4B1",+1 (613) 823-1688,45.2683666667,-75.7473666667,Restaurant,Dine Out,new,NA,NA,NA,NA,BARRHAVEN ASIAN DRAGON,FALSE
Barrhaven Vietnamese,"3777 Strandherd Drive, Ottawa K2J 4B1",+1 (613) 825-4567,45.2682027778,-75.7476972222,Restaurant,Dine Out,new,NA,NA,NA,3777 STRANDHERD,BARRHAVEN VIETNAMESE,FALSE
BARRHAVEN VIETNAMESE RESTAURANT,3777 STRANDHERD DRIVE,NA,45.26802444,-75.74756622,restaurant,regular,old,0,20180706,NA,3777 STRANDHERD,BARRHAVEN VIETNAMESE RESTAURANT,FALSE
Barrymore`s Music Hall,"323 Bank Street, Ottawa, ON K2P 1X9, Canada",NA,45.414567,-75.695615,nightlife,nightlife,old,0,20180706,NA,323 BANK,BARRYMORE`S MUSIC HALL,FALSE
Baskin Robbins,"200 Earl Grey Drive, Ottawa K2T 1K4",+1 (613) 592-3535,45.3118583333,-75.9155194444,Restaurant,Dine Out,new,NA,NA,NA,200 EARL,BASKIN ROBBINS,FALSE
Basmati,"373 Somerset Street West, Ottawa K2P 0K1",+1 (613) 233-0303,45.4150873,-75.6970347,Restaurant,Dine Out,new,NA,NA,NA,373 SOMERSET,BASMATI,FALSE
BASSLINE STATION PUB & EATERY,2557 BASELINE ROAD,NA,45.34171677,-75.78699493,restaurant,nightlife,old,0,20180706,NA,2557 BASELINE,BASSLINE STATION PUB & EATERY,FALSE
BATON ROUGE STEAKHOUSE & BAR,"270 W Hunt Club Rd, Ottawa, ON K2E 0B7",NA,45.3395091,-75.7118605,restaurant,regular,old,1,20180713,NA,270 W,BATON ROUGE STEAKHOUSE & BAR,FALSE
BATON ROUGE STEAKHOUSE & BAR,360 ALBERT STREET,NA,45.41814804,-75.70413971,restaurant,nightlife,old,1,20180706,NA,360 ALBERT,BATON ROUGE STEAKHOUSE & BAR,FALSE
BATON ROUGE STEAKHOUSE & BAR,790 EARL GREY DRIVE,NA,45.3106308,-75.90927887,restaurant,nightlife,old,1,20180706,NA,790 EARL,BATON ROUGE STEAKHOUSE & BAR,FALSE
Bâton Rouge Steakhouse & Bar,"270 W Hunt Club Road, Ottawa K2E 0B7",+1 (613) 224-2570,45.339651,-75.711135,Restaurant,Dine Out,new,NA,NA,NA,270 W,BÂTON ROUGE STEAKHOUSE & BAR,FALSE
Bâton Rouge Steakhouse & Bar,"790 Earl Grey Drive, Unit M3, Kanata K2T 1H8",+1 (613) 591-3655,45.3104944444,-75.9092638889,Restaurant,Dine Out,new,NA,NA,NA,790 EARL,BÂTON ROUGE STEAKHOUSE & BAR,FALSE
Bay Rock Cafe,"2446 Bank Street, Ottawa, ON K1V",NA,45.3527295,-75.6469545,restaurant,regular,old,0,20180726,NA,2446 BANK,BAY ROCK CAFE,FALSE
Bay Rock Café,"2446 Bank Street, Ottawa, ON K1V 1A8",+1 (613) 683-3380,45.352941,-75.646903,Restaurant,Dine Out,new,NA,NA,NA,2446 BANK,BAY ROCK CAFÉ,FALSE
Bazille,"50 Rideau St, Ottawa, ON K1N 9J7",NA,45.4251195,-75.6917194,restaurant,regular,old,0,20180710,NA,50 RIDEAU,BAZILLE,FALSE
Bazille,500-50 Rideau Street K1N 9J7,+1 (613) 788-6110: +1 (613) 788-6110,45.4245850955,-75.6899539828,Restaurant,Dine Out,new,NA,NA,NA,50050 RIDEAU,BAZILLE,FALSE
Beach House Bistro Bar,"2926 Riverside Drive, Ottawa, ON K1V",NA,45.3679398,-75.6896572,restaurant,nightlife,old,0,20180710,NA,2926 RIVERSIDE,BEACH HOUSE BISTRO BAR,FALSE
Beachconers Microcreamery,"273 Britannia Road, Ottawa, ON K2B 6W7",NA,45.3656178,-75.7960952,fast food,coffee shop,old,0,20180726,NA,273 BRITANNIA,BEACHCONERS MICROCREAMERY,FALSE
BeaverTails,"69 George Street, Ottawa K1N 1K1",+1 (613) 241-1230,45.4273805556,-75.6917944444,Restaurant,Dine Out,new,NA,NA,NA,69 GEORGE,BEAVERTAILS,FALSE
BeaverTails Pastry,"69 George Street, Ottawa, ON K1N 1K1",NA,45.427388,-75.6916704,restaurant,nightlife,old,0,20180710,NA,69 GEORGE,BEAVERTAILS PASTRY,FALSE
Beckta,"150 Elgin Street, Ottawa K2P 1L4",+1 (613) 238-7063,45.4204166667,-75.6927944444,Restaurant,Dine Out,new,NA,NA,NA,150 ELGIN,BECKTA,FALSE
Beckta Dining & Wine,"150 Elgin St, Ottawa, ON K2P 1L4",NA,45.4203434,-75.6933067,restaurant,nightlife,old,0,201806,NA,150 ELGIN,BECKTA DINING & WINE,FALSE
BEECHWOOD GASTROPUB,18 BEECHWOOD AVENUE,NA,45.43884659,-75.67710876,restaurant,regular,old,0,20180706,NA,18 BEECHWOOD,BEECHWOOD GASTROPUB,FALSE
Beerocracy,"340 Somerset Street W, Ottawa K2P 0J9",+1 (613) 680-2337,45.415634,-75.695387,Restaurant,Dine Out,new,NA,NA,NA,340 SOMERSET,BEEROCRACY,TRUE
Beerocracy,"340 Somerset St W, Ottawa, ON K2P 0J9",NA,45.4155481,-75.6953319,restaurant,nightlife,old,0,201806,NA,340 SOMERSET,BEEROCRACY,TRUE
Beijing Legend,"1800 Bank Street, Ottawa K1V 0W3",+1 (613) 737-5588,45.37215,-75.664375,Restaurant,Dine Out,new,NA,NA,NA,1800 BANK,BEIJING LEGEND,TRUE
BEIJING LEGEND,1800 BANK STREET,NA,45.37195206,-75.66446686,restaurant,regular,old,0,20180706,NA,1800 BANK,BEIJING LEGEND,TRUE
BELLA'S BISTRO ITALIAN,1445 WELLINGTON STREET  WEST,NA,45.39756775,-75.74156952,restaurant,regular,old,0,20180706,NA,1445 WELLINGTON,BELLA'S BISTRO ITALIAN,FALSE
Bella's Bistro Italiano,"1445 Wellington Street West, Ottawa K1Y 0A6",+1 (613) 724-6439,45.3975805556,-75.7416305556,Restaurant,Dine Out,new,NA,NA,NA,1445 WELLINGTON,BELLA'S BISTRO ITALIANO,FALSE
Bella Vista Restaurant,"2645 Alta Vista Drive, Ottawa K1V 1A3",+1 (613) 731-9841,45.373737,-75.662227,Restaurant,Dine Out,new,NA,NA,NA,2645 ALTA,BELLA VISTA RESTAURANT,TRUE
BELLA VISTA RESTAURANT,2645 ALTA VISTA DRIVE,NA,45.37264633,-75.66222382,restaurant,regular,old,0,20180706,NA,2645 ALTA,BELLA VISTA RESTAURANT,TRUE
Bellavia Cafe,"1975 Wellington Street West, Ottawa K1Y 2X3",+1 (613) 728-2929,45.4009166667,-75.7290583333,Restaurant,Dine Out,new,NA,NA,NA,1975 WELLINGTON,BELLAVIA CAFE,FALSE
Belmont,"1169 Bank Street, Ottawa K1S 3X7",+1 (613) 979-3663,45.3925222222,-75.6818472222,Restaurant,Dine Out,new,NA,NA,NA,1169 BANK,BELMONT,FALSE
BEN-BEN RESTAURANT,697 SOMERSET STREET WEST,NA,45.41111374,-75.70708466,restaurant,regular,old,0,20180706,NA,697 SOMERSET,BEN-BEN RESTAURANT,FALSE
Ben Ben Restaurant,"697 Somerset Street West, Ottawa K1R 6P5",+1 (613) 238-5022,45.4109611111,-75.706925,Restaurant,Dine Out,new,NA,NA,NA,697 SOMERSET,BEN BEN RESTAURANT,FALSE
BENECI PIZZERIA,1105 COBDEN ROAD,NA,45.35296631,-75.77809143,fast food,regular,old,1,20180628,443,1105 COBDEN,BENECI PIZZERIA,FALSE
Beneci Pizzeria,"4 Lorry Greenberg Drive, Unit 8, Ottawa K1G 5H6",+1 (613) 739-7777,45.3692361111,-75.6210555556,Restaurant,Dine Out,new,NA,NA,NA,4 LORRY,BENECI PIZZERIA,TRUE
BENECI PIZZERIA,4 LORRY GREENBERG DRIVE,NA,45.36906815,-75.62095642,fast food,regular,old,1,20180628,443,4 LORRY,BENECI PIZZERIA,TRUE
Benny's Bistro,"119 Murray Street, Ottawa K1N 5M5",+1 (613) 789-6797,45.4302222222,-75.6925888889,Restaurant,Dine Out,new,NA,NA,NA,119 MURRAY,BENNY'S BISTRO,TRUE
BENNY'S BISTRO,119 MURRAY STREET,NA,45.43024063,-75.69269562,restaurant,regular,old,0,20180706,NA,119 MURRAY,BENNY'S BISTRO,TRUE
Bent Coin,"Carleton University, Robertson Hall, 1125 Colonel By Drive, Fifth Floor, Ottawa K1S 5B6",+1 (613) 520-2600,45.3836638889,-75.694,Restaurant,Dine Out,new,NA,NA,NA,NA,BENT COIN,FALSE
BENTO SUSHI,1200 ST LAURENT BOULEVARD,NA,45.42272568,-75.63829803,fast food,regular,old,1,20180628,431,1200 ST,BENTO SUSHI,FALSE
BENTO SUSHI,1980 OGILVIE ROAD,NA,45.43225098,-75.60967255,fast food,regular,old,1,20180628,431,1980 OGILVIE,BENTO SUSHI,FALSE
BENTO SUSHI,"50 Rideau St, Ottawa, ON K1N 9J7",NA,45.4251195,-75.6917194,fast food,regular,old,1,20180628,431,50 RIDEAU,BENTO SUSHI,FALSE
Bento Sushi,"606 Rideau Street, Ottawa K1N 6A2",+1 (613) 562-2563,45.432768,-75.675795,Restaurant,Dine Out,new,NA,NA,NA,606 RIDEAU,BENTO SUSHI,FALSE
Bert's,"Canadian Tire Centre, 1000 Palladium Drive, Ottawa K2V 1E2",+1 (613) 599-2582,45.296401,-75.92528,Restaurant,Dine Out,new,NA,NA,NA,NA,BERT'S,FALSE
Bert’s,"1000 Palladium Dr, Kanata, ON K2V 1A4",NA,45.2967455,-75.9270232,restaurant,nightlife,old,0,20180726,NA,1000 PALLADIUM,BERT’S,FALSE
Best Pizza,"295 McArthur Avenue, Ottawa K1L 6P1",+1 (613) 749-4424,45.4317972222,-75.6561055556,Restaurant,Dine Out,new,NA,NA,NA,295 MCARTHUR,BEST PIZZA,FALSE
BEST PIZZA RESTAURANT,295 MCARTHUR ROAD,NA,45.43187332,-75.65600586,restaurant,regular,old,0,20180706,NA,295 MCARTHUR,BEST PIZZA RESTAURANT,FALSE
Biagio's,"1394 Richmond Road, Ottawa K2B 6R8",+1 (613) 828-0770,45.3647194444,-75.7884305556,Restaurant,Dine Out,new,NA,NA,NA,1394 RICHMOND,BIAGIO'S,FALSE
BIAGIO'S ITALIAN KITCHEN,1394 RICHMOND ROAD,NA,45.36461258,-75.78833008,restaurant,regular,old,0,20180706,NA,1394 RICHMOND,BIAGIO'S ITALIAN KITCHEN,FALSE
Bien Pho,"5929 Jeanne D'Arc Boulevard South, Ottawa K1C 6V8",+1 (613) 830-8002,45.4645166667,-75.5415277778,Restaurant,Dine Out,new,NA,NA,NA,5929 JEANNE,BIEN PHO,FALSE
BIEN PHO VIETNAMESE RESTAURANT,5929 JEANNE D'ARC BOULEVARD,NA,45.46460724,-75.54181671,restaurant,regular,old,0,20180706,NA,5929 JEANNE,BIEN PHO VIETNAMESE RESTAURANT,FALSE
Bier Markt,"156 Sparks Street, Ottawa K1P 5C1",+1 (613) 780-7575,45.4217861111,-75.6998361111,Restaurant,Dine Out,new,NA,NA,NA,156 SPARKS,BIER MARKT,FALSE
Big Bone BBQ,"701 Eagleson Road, Ottawa K2M 2G1",+1 (613) 435-5453,45.287689,-75.866832,Restaurant,Dine Out,new,NA,NA,NA,701 EAGLESON,BIG BONE BBQ,FALSE
Big Boss Burgers,1748 Laurier,+1 (613) 419-1119,45.55,-75.29,Restaurant,Dine Out,new,NA,NA,NA,1748 LAURIER,BIG BOSS BURGERS,FALSE
Big Easy's,"228 Preston Street, Ottawa K1R 7R4",+1 (613) 565-3279,45.4051694444,-75.7122416667,Restaurant,Dine Out,new,NA,NA,NA,228 PRESTON,BIG EASY'S,FALSE
BIG EASY'S SEAFOOD & STEAK H,228 PRESTON STREET,NA,45.40519333,-75.71247101,restaurant,regular,old,0,20180706,NA,228 PRESTON,BIG EASY'S SEAFOOD & STEAK H,FALSE
Big Mort's Little Pub,"2011 Robertson Rd, Nepean, ON K2H 7P4",NA,45.324836,-75.827418,restaurant,nightlife,old,0,201806,NA,2011 ROBERTSON,BIG MORT'S LITTLE PUB,FALSE
Big Rig Brewery,"2750 Iris Street, Ottawa K2C 3V5",+1 (613) 688-3336,45.3475888889,-75.7875138889,Restaurant,Dine Out,new,NA,NA,NA,2750 IRIS,BIG RIG BREWERY,FALSE
Big Rig Kitchen & Brewery,"1980 Ogilvie Rd #115, Gloucester, ON K1J 9L3",NA,45.4325275,-75.6098258,restaurant,nightlife,old,0,20180713,NA,1980 OGILVIE,BIG RIG KITCHEN & BREWERY,FALSE
Big Rig Kitchen & Brewery,"2750 Iris St, Ottawa, ON K2C 3C9",NA,45.3475215,-75.7871237,restaurant,nightlife,old,0,201806,NA,2750 IRIS,BIG RIG KITCHEN & BREWERY,FALSE
Big Rig Kitchen and Brewery,1980 Ogilvie Road,+1 (613) 552-3336,45.432541,-75.610335,Restaurant,Dine Out,new,NA,NA,NA,1980 OGILVIE,BIG RIG KITCHEN AND BREWERY,FALSE
BIG SMOKE BURGER,50 RIDEAU STREET,NA,45.42489243,-75.69013977,fast food,regular,old,0,20180706,353,50 RIDEAU,BIG SMOKE BURGER,FALSE
Big Smoke Burger,"Rideau Centre, 50 Rideau Street, Ottawa K1N 9J7",+1 (613) 231-7000,45.4255824,-75.692568,Restaurant,Dine Out,new,NA,NA,NA,NA,BIG SMOKE BURGER,FALSE
Bigg's,"1099 St. Laurent Boulevard, Ottawa K1K 3B1",+1 (613) 746-5040,45.4258944444,-75.6380388889,Restaurant,Dine Out,new,NA,NA,NA,1099 ST,BIGG'S,FALSE
BIGG'S DELI BAR,1099 ST. LAURENT BOULEVARD,NA,45.42603683,-75.63773346,restaurant,regular,old,0,20180706,NA,1099 ST,BIGG'S DELI BAR,FALSE
Bilal's Kabob House,"4055 Carling Avenue, Ottawa K2K 2A4",+1 (613) 270-8866,45.3384944444,-75.9075472222,Restaurant,Dine Out,new,NA,NA,NA,4055 CARLING,BILAL'S KABOB HOUSE,FALSE
Binh-go Fries,"85 Robertson Road, Ottawa K2H 8G3",+1 (613) 858-7456,45.321653,-75.835398,Restaurant,Dine Out,new,NA,NA,NA,85 ROBERTSON,BINH-GO FRIES,FALSE
Biryani Tikka House,"283 Queen Mary Street, Ottawa K1K 1X1",+1 (613) 422-4886,45.425199,-75.653237,Restaurant,Dine Out,new,NA,NA,NA,283 QUEEN,BIRYANI TIKKA HOUSE,FALSE
Bistro 360,"360 Laurier Avenue W, Ottawa K1P 5K3",NA,45.417926,-75.699901,Restaurant,Dine Out,new,NA,NA,NA,360 LAURIER,BISTRO 360,FALSE
Bite Burger House,"108 Murray Street, Ottawa K1N 5M7",+1 (613) 562-2483,45.4298694444,-75.692925,Restaurant,Dine Out,new,NA,NA,NA,108 MURRAY,BITE BURGER HOUSE,TRUE
Bite Burger House,"108 Murray Street, Ottawa, ON K1N 5M7",NA,45.4297799,-75.6928305,restaurant,nightlife,old,0,20180710,NA,108 MURRAY,BITE BURGER HOUSE,TRUE
Bite This,"181 Richmond Road, Ottawa K1Z 6W3",+1 (613) 709-1487,45.3951138889,-75.7476055556,Restaurant,Dine Out,new,NA,NA,NA,181 RICHMOND,BITE THIS,TRUE
Bite This,"181 Richmond Road, Ottawa, ON K1Z 6W3",NA,45.3951374,-75.7475299,fast food,regular,old,0,20180726,NA,181 RICHMOND,BITE THIS,TRUE
Black Dog Bistro,"5540 Manotick Main Street, Manotick, Ottawa K4M 1A6",+1 (613) 692-3779,45.2253083333,-75.6845638889,Restaurant,Dine Out,new,NA,NA,NA,5540 MANOTICK,BLACK DOG BISTRO,TRUE
BLACK DOG BISTRO,5540 MANOTICK MAIN STREET,NA,45.22526932,-75.68460846,restaurant,regular,old,0,20180706,NA,5540 MANOTICK,BLACK DOG BISTRO,TRUE
Black Squirrel,"1073 Bank Street, Ottawa K1S 3W9",+1 (613) 600-3405,45.394665,-75.683504,Restaurant,Dine Out,new,NA,NA,NA,1073 BANK,BLACK SQUIRREL,FALSE
Black Squirrel Books & Espresso Bar,"1073 Bank Street, Ottawa, ON K1S 3X3",NA,45.3946641,-75.6834952,fast food,coffee shop,old,0,20180726,NA,1073 BANK,BLACK SQUIRREL BOOKS & ESPRESSO BAR,FALSE
Black Thorn Café,"15 Clarence Street, Ottawa, ON K1N 5P4",NA,45.4283732,-75.695106,restaurant,regular,old,0,20180710,NA,15 CLARENCE,BLACK THORN CAFÉ,FALSE
Black Walnut Bakery,"979 Cameron Street, Ottawa, ON K4C 1A1",NA,45.5179599,-75.4106861,fast food,coffee shop,old,0,20180726,NA,979 CAMERON,BLACK WALNUT BAKERY,FALSE
Blackburn Arms Pub,"2586 Innes Road, Ottawa K1B 3K1",+1 (613) 830-4829,45.4310027778,-75.5654,Restaurant,Dine Out,new,NA,NA,NA,2586 INNES,BLACKBURN ARMS PUB,TRUE
BLACKBURN ARMS PUB,"2586 Innes Rd, Gloucester, ON K1B 4Z6",NA,45.4309415,-75.5654484,restaurant,nightlife,old,0,201806,NA,2586 INNES,BLACKBURN ARMS PUB,TRUE
Blades Bar & Grill,"Minto Skating Centre, 2571 Lancaster Road, Main Level, Ottawa K1B 4L5",+1 (613) 733-7800,45.4000388889,-75.6124583333,Restaurant,Dine Out,new,NA,NA,NA,NA,BLADES BAR & GRILL,FALSE
Blue Cactus Bar and Grill,"2 ByWard Market Square, Ottawa K1N 7A1",+1 (613) 241-7061,45.428606,-75.693841,Restaurant,Dine Out,new,NA,NA,NA,2 BYWARD,BLUE CACTUS BAR AND GRILL,TRUE
Blue Cactus Bar and Grill,"2 Byward Market Square, Ottawa, ON K1N 7A1, Canada",NA,45.428695,-75.693774,restaurant,nightlife,old,0,201806,NA,2 BYWARD,BLUE CACTUS BAR AND GRILL,TRUE
Blue Gardenia,"222 Queen Street, Ottawa K1P 5V9",+1 (613) 232-9314,45.4205694444,-75.7012166667,Restaurant,Dine Out,new,NA,NA,NA,222 QUEEN,BLUE GARDENIA,FALSE
Blue Nile,"577 Gladstone Avenue, Ottawa K1R 5P2",+1 (613) 321-0774,45.4094305556,-75.7008361111,Restaurant,Dine Out,new,NA,NA,NA,577 GLADSTONE,BLUE NILE,FALSE
Blue Nile,"707 Gladstone Avenue, Ottawa, ON K1R 6X2",NA,45.4077677,-75.7043431,restaurant,regular,old,0,20180710,NA,707 GLADSTONE,BLUE NILE,FALSE
BLUE NILE ETHIOPIAN RESTAURANT,575 GLADSTONE AVENUE,NA,45.40939713,-75.7008667,restaurant,regular,old,0,20180706,NA,575 GLADSTONE,BLUE NILE ETHIOPIAN RESTAURANT,FALSE
Bluebird Coffee,"261 Dalhousie Street, Ottawa K1N 7E3",+1 (613) 695-7766,45.4305527778,-75.6925972222,Restaurant,Dine Out,new,NA,NA,NA,261 DALHOUSIE,BLUEBIRD COFFEE,TRUE
BLUEBIRD COFFEE,261 DALHOUSIE STREET,NA,45.430580140000004,-75.69238281,fast food,coffee shop,old,0,20180706,NA,261 DALHOUSIE,BLUEBIRD COFFEE,TRUE
Blumenstudio,"465 Parkdale Avenue, Ottawa K1Y 1H5",+1 (613) 680-8400,45.3988225,-75.7279366,Restaurant,Dine Out,new,NA,NA,NA,465 PARKDALE,BLUMENSTUDIO,TRUE
blumenstudio,"465 Parkdale Avenue, Ottawa, ON K1Y 1H5",NA,45.3988122,-75.7277585,restaurant,regular,old,0,20180710,NA,465 PARKDALE,BLUMENSTUDIO,TRUE
Bobbie's Pizza & Subs,"1443 Ogilvie Road, Ottawa K1J 7P3",+1 (613) 741-7000,45.4318277778,-75.6182638889,Restaurant,Dine Out,new,NA,NA,NA,1443 OGILVIE,BOBBIE'S PIZZA & SUBS,FALSE
BOBBIE'S PIZZA AND SUBS,1443 OGILVIE ROAD,NA,45.43190765,-75.61829376,fast food,regular,old,0,20180706,212,1443 OGILVIE,BOBBIE'S PIZZA AND SUBS,FALSE
Bobby's Table,"255 Montreal Road, Ottawa K1L 6C4",+1 (613) 740-9333,45.4364166667,-75.6610944444,Restaurant,Dine Out,new,NA,NA,NA,255 MONTREAL,BOBBY'S TABLE,TRUE
BOBBY'S TABLE,255 MONTREAL ROAD,NA,45.43645859,-75.66105652,restaurant,regular,old,0,20180706,NA,255 MONTREAL,BOBBY'S TABLE,TRUE
Boboul Pizza,"525 Limoges Road, Limoges K0A 2M0",+1 (613) 443-3616,45.3306868,-75.2523376,Restaurant,Dine Out,new,NA,NA,NA,525 LIMOGES,BOBOUL PIZZA,FALSE
Bogota Café,"625 Principale Street, Casselman K0A 1M0",+1 (613) 764-3112,45.299626,-75.079159,Restaurant,Dine Out,new,NA,NA,NA,625 PRINCIPALE,BOGOTA CAFÉ,FALSE
Bombay Garden Indian Cuisine,"2401 Bank Street, Ottawa K1V 8R9",+1 (613) 731-3003,45.3546555556,-75.6489555556,Restaurant,Dine Out,new,NA,NA,NA,2401 BANK,BOMBAY GARDEN INDIAN CUISINE,FALSE
BOMBAY GARDEN INDIAN CUISINE,2401-4 BANK STREET,NA,45.35491562,-75.64909363,restaurant,regular,old,0,20180706,NA,24014 BANK,BOMBAY GARDEN INDIAN CUISINE,FALSE
BonFire,"Carleton University, University Centre, 1125 Colonel By Drive, Second Floor, Ottawa K1S 5B6",NA,45.383434,-75.697826,Restaurant,Dine Out,new,NA,NA,NA,NA,BONFIRE,FALSE
Bonita's Cantina,"6001 Hazeldean Road, Ottawa K2S 1B9",+1 (613) 314-9595,45.275768,-75.925525,Restaurant,Dine Out,new,NA,NA,NA,6001 HAZELDEAN,BONITA'S CANTINA,FALSE
BOOSTER JUICE,105-2323 RIVERSIDE DRIVE,NA,45.38578415,-75.6776886,fast food,regular,old,1,20180628,430,1052323 RIVERSIDE,BOOSTER JUICE,FALSE
Booster Juice,"110 Place d'Orleans Dr, Unit #1263, Orleans, Ontario, K1C 2L9",NA,45.47794567,-75.51501862,Fast Food,Regular,new,NA,NA,NA,110 PLACE,BOOSTER JUICE,FALSE
Booster Juice,"1125, Colonel By Dr, Ottawa, Ontario, K1S 5B6",NA,45.384374,-75.698305,Fast Food,Regular,new,NA,NA,NA,1125 COLONEL,BOOSTER JUICE,TRUE
BOOSTER JUICE,"1125 Colonel By Drive, 4th floor University Centre, Ottawa, ON K1S 5B6",NA,45.3874818,-75.6959881,fast food,regular,old,1,20180628,430,1125 COLONEL,BOOSTER JUICE,TRUE
Booster Juice,"1200 St. Laurent Blvd, Unit Z016, Ottawa, Ontario, K1K 3B8",NA,45.42238639,-75.63795737,Fast Food,Regular,new,NA,NA,NA,1200 ST,BOOSTER JUICE,FALSE
BOOSTER JUICE,1263-110 PLACE D'ORLEANS DRIVE,NA,45.47902298,-75.51498413,fast food,regular,old,1,20180628,430,1263110 PLACE,BOOSTER JUICE,FALSE
Booster Juice,"1385 Woodroffe Ave, Building E, Ottawa, Ontario, K2G 1V8",NA,45.3501,-75.75631,Fast Food,Regular,new,NA,NA,NA,1385 WOODROFFE,BOOSTER JUICE,TRUE
BOOSTER JUICE,"1385 Woodroffe Ave, Building E, Ottawa, ON K2G 1V8",NA,45.3502599,-75.7558773,fast food,regular,old,1,20180628,430,1385 WOODROFFE,BOOSTER JUICE,TRUE
Booster Juice,"1460 Merivale Road, Unit 7, Ottawa, Ontario, K2E 5P2",NA,45.3625239,-75.73560531,Fast Food,Regular,new,NA,NA,NA,1460 MERIVALE,BOOSTER JUICE,TRUE
BOOSTER JUICE,"1460 Merivale Rd Unit 7, Ottawa, ON K2E 5P2",NA,45.3619299,-75.7353516,fast food,regular,old,1,20180628,430,1460 MERIVALE,BOOSTER JUICE,TRUE
BOOSTER JUICE,1-5547 HAZELDEAN ROAD,NA,45.28806686,-75.9050827,fast food,regular,old,1,20180628,430,15547 HAZELDEAN,BOOSTER JUICE,FALSE
Booster Juice,"160 Elgin Street, Ottawa, Ontario, K1A 1J4",NA,45.4197,-75.69322,Fast Food,Regular,new,NA,NA,NA,160 ELGIN,BOOSTER JUICE,TRUE
BOOSTER JUICE,"160 Elgin St, Ottawa, ON K1A 0W9",NA,45.423532,-75.6963868,fast food,regular,old,1,20180628,430,160 ELGIN,BOOSTER JUICE,TRUE
Booster Juice,"1600 Heron Road, unit #8 , Ottawa, Ontario, K1V 2P5",NA,45.378977,-75.645903,Fast Food,Regular,new,NA,NA,NA,1600 HERON,BOOSTER JUICE,TRUE
BOOSTER JUICE,"1600 Heron Rd, Ottawa, ON K1V 2P5",NA,45.377631,-75.652193,fast food,regular,old,1,20180628,430,1600 HERON,BOOSTER JUICE,TRUE
BOOSTER JUICE,16-1675 TENTH LINE ROAD,NA,45.46906281,-75.49196625,fast food,regular,old,1,20180628,430,161675 TENTH,BOOSTER JUICE,FALSE
Booster Juice,"1675 Tenth Line Road, Unit #16, Orleans, Ontario, K1E 3P6",NA,45.46927497,-75.49182454,Fast Food,Regular,new,NA,NA,NA,1675 TENTH,BOOSTER JUICE,TRUE
BOOSTER JUICE,"1675 Tenth Line Rd, Orléans, ON K1E 3P6",NA,45.4693405,-75.4914216,fast food,regular,old,1,20180628,430,1675 TENTH,BOOSTER JUICE,TRUE
Booster Juice,"2014 Ogilvie Road, Unit #2, Ottawa, Ontario, K1J 7N9",NA,45.436741,-75.604299,Fast Food,Regular,new,NA,NA,NA,2014 OGILVIE,BOOSTER JUICE,TRUE
BOOSTER JUICE,"2014 Ogilvie Rd, Ottawa, ON K1J 7N9",NA,45.4369307,-75.6037275,fast food,regular,old,1,20180628,430,2014 OGILVIE,BOOSTER JUICE,TRUE
BOOSTER JUICE,202-45 O'CONNOR STREET,NA,45.42178726,-75.69728851,fast food,regular,old,1,20180628,430,20245 OCONNOR,BOOSTER JUICE,FALSE
Booster Juice,"2121 Carling Ave., Unit #54, Ottawa, Ontario, K2A 1H2",NA,45.37274082,-75.77049192,Fast Food,Regular,new,NA,NA,NA,2121 CARLING,BOOSTER JUICE,FALSE
Booster Juice,"2323 Riverside Drive, Unit #705, Ottawa, Ontario, K1H 8L5",NA,45.385642,-75.67761818,Fast Food,Regular,new,NA,NA,NA,2323 RIVERSIDE,BOOSTER JUICE,FALSE
BOOSTER JUICE,2-836 MARCH ROAD,NA,45.35746765,-75.93360138,fast food,regular,old,1,20180628,430,2836 MARCH,BOOSTER JUICE,FALSE
Booster Juice,"300 Earl Grey Drive, Ottawa K2T 1B8",+1 (613) 270-9877,45.3114305556,-75.9157944444,Restaurant,Dine Out,new,NA,NA,NA,300 EARL,BOOSTER JUICE,FALSE
BOOSTER JUICE,"324 W Hunt Club Rd Unit E2.4, Ottawa, ON K2E 0B7",NA,45.3384616,-75.7145885,fast food,regular,old,1,20180628,430,324 W,BOOSTER JUICE,FALSE
Booster Juice,"324 West Hunt Club Road, Unit E2.4, Ottawa, Ontario, K2E 0B7",NA,45.33843997,-75.71459406,Fast Food,Regular,new,NA,NA,NA,324 WEST,BOOSTER JUICE,FALSE
Booster Juice,"344 Slater Street, Unit 22A, Ottawa, Ontario, K1R 7Y3",NA,45.41781553,-75.70296767,Fast Food,Regular,new,NA,NA,NA,344 SLATER,BOOSTER JUICE,FALSE
Booster Juice,"45 O'Connor Street, Unit #202, Ottawa, Ontario, K1P 1A5",NA,45.42161904,-75.69737448,Fast Food,Regular,new,NA,NA,NA,45 OCONNOR,BOOSTER JUICE,FALSE
Booster Juice,"50 Marketplace Ave., Unit #4A, Nepean, Ontario, K2J 5G3",NA,45.26982891,-75.74374483,Fast Food,Regular,new,NA,NA,NA,50 MARKETPLACE,BOOSTER JUICE,FALSE
Booster Juice,"50 Rideau Street, Unit #327A Rideau Centre, Ottawa, Ontario, K1N 9J7",NA,45.42420847,-75.69044355,Fast Food,Regular,new,NA,NA,NA,50 RIDEAU,BOOSTER JUICE,TRUE
BOOSTER JUICE,50 RIDEAU STREET,NA,45.42436981,-75.69041443,fast food,regular,old,1,20180628,430,50 RIDEAU,BOOSTER JUICE,TRUE
BOOSTER JUICE,54-2121 CARLING AVENUE,NA,45.37272263,-75.77062225,fast food,regular,old,1,20180628,430,542121 CARLING,BOOSTER JUICE,FALSE
Booster Juice,"5547 Hazeldean Road, Building D2, Unit 1, Stittsville, Ontario, K2S 0P5",NA,45.28807463,-75.90507921,Fast Food,Regular,new,NA,NA,NA,5547 HAZELDEAN,BOOSTER JUICE,FALSE
Booster Juice,"643 Boul. St-Rene Ouest., Unit 130, Gatineau, Quebec, J8T 8M4",NA,45.49086188,-75.67685059,Fast Food,Regular,new,NA,NA,NA,643 BOUL,BOOSTER JUICE,FALSE
BOOSTER JUICE,7-1460 MERIVALE ROAD,NA,45.36253738,-75.73561859,fast food,regular,old,1,20180628,430,71460 MERIVALE,BOOSTER JUICE,FALSE
Booster Juice,"International Airport, Ottawa Post Security , Ottawa, Ontario, K1V 9B4",NA,45.32244845,-75.66709699,Fast Food,Regular,new,NA,NA,NA,NA,BOOSTER JUICE,FALSE
BOOSTER JUICE,10A-300 EARL GREY DRIVE,NA,45.31147766,-75.9157486,fast food,regular,old,1,20180628,430,NA,BOOSTER JUICE,FALSE
BOOSTER JUICE,22A-344 SLATER STREET,NA,45.41769028,-75.70288086,fast food,regular,old,1,20180628,430,NA,BOOSTER JUICE,FALSE
BOOSTER JUICE,4A-50 MARKETPLACE AVENUE,NA,45.26975632,-75.74346924,fast food,regular,old,1,20180628,430,NA,BOOSTER JUICE,FALSE
BOOSTER JUICE,Z016-1200 ST LAURENT BOULEVARD,NA,45.42266846,-75.63793182,fast food,regular,old,1,20180628,430,NA,BOOSTER JUICE,FALSE
Borgo Bar,"262 Preston Street, Ottawa K1R 7R5",+1 (613) 862-8750,45.4043899012,-75.7120898969,Restaurant,Dine Out,new,NA,NA,NA,262 PRESTON,BORGO BAR,FALSE
Boston Pizza,"1055 St. Laurent Blvd, Ottawa, ON, K1K 3B1, Canada",NA,45.427054,-75.6383701,restaurant,nightlife,old,1,201806,NA,1055 ST,BOSTON PIZZA,FALSE
Boston Pizza,"135 Roland Michener Dr, Kanata, ON K2T 1G7",NA,45.3083876,-75.9122669,restaurant,nightlife,old,1,201806,NA,135 ROLAND,BOSTON PIZZA,FALSE
Boston Pizza,"1640 Carling Avenue, Ottawa, ON K2A 1C5, Canada",NA,45.379795,-75.748246,restaurant,nightlife,old,1,201806,NA,1640 CARLING,BOSTON PIZZA,FALSE
Boston Pizza,"1681 Greenbank Road, Ottawa K2J 4Y6",+1 (613) 825-1414,45.2730916667,-75.7474833333,Restaurant,Dine Out,new,NA,NA,NA,1681 GREENBANK,BOSTON PIZZA,TRUE
Boston Pizza,"1681 Greenbank Rd, Nepean, ON K2J 4Y6",NA,45.2721802,-75.7458871,restaurant,nightlife,old,1,201806,NA,1681 GREENBANK,BOSTON PIZZA,TRUE
Boston Pizza,"2980 Conroy Road, Ottawa, ON K1G 6C1, Canada",NA,45.383395,-75.630265,restaurant,nightlife,old,1,201806,NA,2980 CONROY,BOSTON PIZZA,FALSE
Boston Pizza,"3884 Innes Road, Orleans, ON, K1W 1K9, Canada",NA,45.4530415,-75.5102409,restaurant,nightlife,old,1,201806,NA,3884 INNES,BOSTON PIZZA,FALSE
Boston Pizza,"521 West Hunt Club Road, Nepean, ON K2G 5W5, Canada",NA,45.334305,-75.725447,restaurant,nightlife,old,1,201806,NA,521 WEST,BOSTON PIZZA,FALSE
Boston Pizza,"640 Bank St, Ottawa ON K1S 3Z8, Canada",NA,45.4063331,-75.6905148,restaurant,nightlife,old,1,201806,NA,640 BANK,BOSTON PIZZA,FALSE
Boston Pizza,"767 Notre-Dame St Unit#41, Embrun, Ottawa",+1 (613) 443-1221,45.277005,-75.27543,Restaurant,Dine Out,new,NA,NA,NA,767 NOTREDAME,BOSTON PIZZA,FALSE
Boulangerie du Village,"880 Notre Dame Street, Embrun K0A 1W0",+1 (613) 370-8800,45.271001,-75.290372,Restaurant,Dine Out,new,NA,NA,NA,880 NOTRE,BOULANGERIE DU VILLAGE,FALSE
BOURBON STREET GRILL,1200 ST LAURENT BOULEVARD,NA,45.42255402,-75.63837433,fast food,regular,old,0,20180706,105,1200 ST,BOURBON STREET GRILL,FALSE
Bourbon Street Grill,"St. Laurent Shopping Centre, 1200 St. Laurent Boulevard, Ottawa K1K 3B8",+1 (613) 842-9699,45.4225083333,-75.6379916667,Restaurant,Dine Out,new,NA,NA,NA,NA,BOURBON STREET GRILL,FALSE
Bowman's Bar & Grill,"1170 Carling Avenue, Ottawa K1Z 7K6",+1 (613) 680-9339,45.3880611111,-75.7291861111,Restaurant,Dine Out,new,NA,NA,NA,1170 CARLING,BOWMAN'S BAR & GRILL,TRUE
Bowman's Bar & Grill,"1170 Carling Ave, Ottawa, ON K1Z 7K6",NA,45.3878926,-75.7292948,restaurant,nightlife,old,0,201806,NA,1170 CARLING,BOWMAN'S BAR & GRILL,TRUE
Bramasole Diner,"428 Bank Street, Ottawa K2P 1Y8",+1 (613) 234-0502,45.412289,-75.693945,Restaurant,Dine Out,new,NA,NA,NA,428 BANK,BRAMASOLE DINER,TRUE
BRAMASOLE DINER,428 BANK STREET,NA,45.41242981,-75.69393158,restaurant,regular,old,0,20180706,NA,428 BANK,BRAMASOLE DINER,TRUE
Brampton Authentic Indian Food,"178 Meadowlands Drive West, Ottawa K2G 2S6",Not Available,45.3423694444,-75.755675,Restaurant,Dine Out,new,NA,NA,NA,178 MEADOWLANDS,BRAMPTON AUTHENTIC INDIAN FOOD,TRUE
Brampton Authentic Indian Food,"178 Meadowlands Drive W, Ottawa, ON K2G 2S6",NA,45.3422601,-75.7555122,restaurant,regular,old,0,20180710,NA,178 MEADOWLANDS,BRAMPTON AUTHENTIC INDIAN FOOD,TRUE
Brampton Authentic Indian Foods,"178 Meadowlands Dr W, Ottawa K2G 2S6",+1 (613) 695-9915,45.3422361,-75.7556231,Restaurant,Dine Out,new,NA,NA,NA,178 MEADOWLANDS,BRAMPTON AUTHENTIC INDIAN FOODS,FALSE
Bread & Roses Bakery,"323 St. Laurent Boulevard, Ottawa K1K 2Z5",+1 (613) 745-2087,45.4500555556,-75.6517416667,Restaurant,Dine Out,new,NA,NA,NA,323 ST,BREAD & ROSES BAKERY,FALSE
Bread & Sons Bakery,"195 Bank Street, Ottawa K2P 1W7",+1 (613) 230-5302,45.4176361111,-75.6982638889,Restaurant,Dine Out,new,NA,NA,NA,195 BANK,BREAD & SONS BAKERY,FALSE
Bread By Us,"1065 Wellington Street West, Ottawa K1Y 2Y2",+1 (613) 422-5300,45.4035333333,-75.7249305556,Restaurant,Dine Out,new,NA,NA,NA,1065 WELLINGTON,BREAD BY US,FALSE
BREAKFAST AT NAVAN,1211 COLONIAL ROAD,NA,45.42092514,-75.42629242,restaurant,regular,old,0,20180706,NA,1211 COLONIAL,BREAKFAST AT NAVAN,FALSE
Brian's Bar & Grill,"2 Racine Street, Casselman K0A 1M0",+1 (613) 764-1800,45.3058694444,-75.0813611111,Restaurant,Dine Out,new,NA,NA,NA,2 RACINE,BRIAN'S BAR & GRILL,FALSE
Bridge Treats,"157 Bridge Street, Carleton Place K7C 2V6",NA,45.140116,-76.146066,Restaurant,Dine Out,new,NA,NA,NA,157 BRIDGE,BRIDGE TREATS,FALSE
Bridgehead,1024 Wellington St. (at Fairmont),NA,45.404592,-75.723837,Fast Food,Coffee Shop,new,NA,NA,NA,1024 WELLINGTON,BRIDGEHEAD,FALSE
Bridgehead,109 Bank Street (at Albert),NA,45.419924,-75.700196,Fast Food,Coffee Shop,new,NA,NA,NA,109 BANK,BRIDGEHEAD,FALSE
Bridgehead,1125 Colonel By Dr. (at Carleton),NA,45.384323,-75.6968725,Fast Food,Coffee Shop,new,NA,NA,NA,1125 COLONEL,BRIDGEHEAD,FALSE
Bridgehead,1172 Bank St. (at Grove),NA,45.392289,-75.681988,Fast Food,Coffee Shop,new,NA,NA,NA,1172 BANK,BRIDGEHEAD,FALSE
Bridgehead,1277 Wellington St. (at Caroline),NA,45.399291,-75.734516,Fast Food,Coffee Shop,new,NA,NA,NA,1277 WELLINGTON,BRIDGEHEAD,FALSE
Bridgehead,131 Beechwood (in New Edinburgh),NA,45.442087,-75.671965,Fast Food,Coffee Shop,new,NA,NA,NA,131 BEECHWOOD,BRIDGEHEAD,FALSE
Bridgehead,150 Slater St. at O\'Connor,NA,45.418985,-75.696717,Fast Food,Coffee Shop,new,NA,NA,NA,150 SLATER,BRIDGEHEAD,FALSE
Bridgehead,160 Elgin St. (at Place Bell),NA,45.420047,-75.69286,Fast Food,Coffee Shop,new,NA,NA,NA,160 ELGIN,BRIDGEHEAD,FALSE
Bridgehead,2140 Carling Ave. (at Fairlawn Plaza),NA,45.370774,-75.768674,Fast Food,Coffee Shop,new,NA,NA,NA,2140 CARLING,BRIDGEHEAD,FALSE
Bridgehead,"224 Dalhousie Street (at Guigues Ave,)",NA,45.431553,-75.69341,Fast Food,Coffee Shop,new,NA,NA,NA,224 DALHOUSIE,BRIDGEHEAD,FALSE
Bridgehead,2745 Iris St. (at Greenbank),NA,45.34828,-75.788122,Fast Food,Coffee Shop,new,NA,NA,NA,2745 IRIS,BRIDGEHEAD,FALSE
Bridgehead,282 Elgin St. (at MacLaren St.),NA,45.41704,-75.689852,Fast Food,Coffee Shop,new,NA,NA,NA,282 ELGIN,BRIDGEHEAD,FALSE
Bridgehead,317 McRae Ave (near Scott),NA,45.396665,-75.750691,Fast Food,Coffee Shop,new,NA,NA,NA,317 MCRAE,BRIDGEHEAD,FALSE
Bridgehead,344 Slater St. (between Kent and Lyon),NA,45.417972,-75.702907,Fast Food,Coffee Shop,new,NA,NA,NA,344 SLATER,BRIDGEHEAD,FALSE
Bridgehead,"366 Bank Street, Ottawa K2P 1Y4",+1 (613) 569-5600,45.414005,-75.695279,Restaurant,Dine Out,new,NA,NA,NA,366 BANK,BRIDGEHEAD,FALSE
Bridgehead,440 Richmond Rd (at Golden),NA,45.389825,-75.758345,Fast Food,Coffee Shop,new,NA,NA,NA,440 RICHMOND,BRIDGEHEAD,FALSE
Bridgehead,50 Rideau St. (at Rideau Centre),NA,45.425075,-75.691271,Fast Food,Coffee Shop,new,NA,NA,NA,50 RIDEAU,BRIDGEHEAD,FALSE
Bridgehead,750 Bank St. (Second Ave),NA,45.403526,-75.688873,Fast Food,Coffee Shop,new,NA,NA,NA,750 BANK,BRIDGEHEAD,FALSE
Bridgehead,830 Belfast Rd. (at Train Yards),NA,45.4125463597027,-75.6380499964803,Fast Food,Coffee Shop,new,NA,NA,NA,830 BELFAST,BRIDGEHEAD,FALSE
Bridgehead,96 Sparks St. (at Metcalfe St.),NA,45.422829,-75.69745,Fast Food,Coffee Shop,new,NA,NA,NA,96 SPARKS,BRIDGEHEAD,FALSE
Bridgehead,Bridgehead Roastery,NA,45.407121,-75.713256,Fast Food,Coffee Shop,new,NA,NA,NA,NA,BRIDGEHEAD,FALSE
BRIDGEHEAD COFFEEHOUSE,1024 WELLINGTON STREET,NA,45.40457153,-75.72370911,fast food,coffee shop,old,1,20180628,217,1024 WELLINGTON,BRIDGEHEAD COFFEEHOUSE,FALSE
BRIDGEHEAD COFFEEHOUSE,109 BANK STREET,NA,45.4198761,-75.70011139,fast food,coffee shop,old,1,20180628,217,109 BANK,BRIDGEHEAD COFFEEHOUSE,FALSE
BRIDGEHEAD COFFEEHOUSE,1172 BANK STREET,NA,45.39225769,-75.68209076,fast food,coffee shop,old,1,20180628,217,1172 BANK,BRIDGEHEAD COFFEEHOUSE,FALSE
BRIDGEHEAD COFFEEHOUSE,1277 WELLINGTON STREET,NA,45.39927292,-75.73448181,fast food,coffee shop,old,1,20180628,217,1277 WELLINGTON,BRIDGEHEAD COFFEEHOUSE,FALSE
BRIDGEHEAD COFFEEHOUSE,130 ANDERSON STREET,NA,45.40732956,-75.71317291,fast food,coffee shop,old,1,20180628,217,130 ANDERSON,BRIDGEHEAD COFFEEHOUSE,FALSE
BRIDGEHEAD COFFEEHOUSE,131 BEECHWOOD AVENUE,NA,45.44203568,-75.67205048,fast food,coffee shop,old,1,20180628,217,131 BEECHWOOD,BRIDGEHEAD COFFEEHOUSE,FALSE
BRIDGEHEAD COFFEEHOUSE,151 O'CONNOR STREET,NA,45.41983414,-75.69736481,fast food,coffee shop,old,1,20180628,217,151 OCONNOR,BRIDGEHEAD COFFEEHOUSE,FALSE
BRIDGEHEAD COFFEEHOUSE,"160 Elgin St, Ottawa, ON K1A 0W9",NA,45.423532,-75.6963868,fast food,coffee shop,old,1,20180628,217,160 ELGIN,BRIDGEHEAD COFFEEHOUSE,FALSE
BRIDGEHEAD COFFEEHOUSE,"2140 Carling Ave, Ottawa, ON K2A 1H1",NA,45.3707482,-75.7683461,fast food,coffee shop,old,1,20180628,217,2140 CARLING,BRIDGEHEAD COFFEEHOUSE,FALSE
BRIDGEHEAD COFFEEHOUSE,224 DALHOUSIE STREET,NA,45.43136215,-75.69345093,fast food,coffee shop,old,1,20180628,217,224 DALHOUSIE,BRIDGEHEAD COFFEEHOUSE,FALSE
BRIDGEHEAD COFFEEHOUSE,"2745 Iris St, Ottawa, ON K2C 3V5",NA,45.3482985,-75.7881625,fast food,coffee shop,old,1,20180628,217,2745 IRIS,BRIDGEHEAD COFFEEHOUSE,FALSE
BRIDGEHEAD COFFEEHOUSE,282 ELGIN STREET,NA,45.41704941,-75.68979645,fast food,coffee shop,old,1,20180628,217,282 ELGIN,BRIDGEHEAD COFFEEHOUSE,FALSE
BRIDGEHEAD COFFEEHOUSE,"317 McRae Ave, Ottawa, ON K1Z 8P4",NA,45.3960489,-75.7498115,fast food,coffee shop,old,1,20180628,217,317 MCRAE,BRIDGEHEAD COFFEEHOUSE,FALSE
BRIDGEHEAD COFFEEHOUSE,344 SLATER STREET,NA,45.41773224,-75.70269012,fast food,coffee shop,old,1,20180628,217,344 SLATER,BRIDGEHEAD COFFEEHOUSE,FALSE
BRIDGEHEAD COFFEEHOUSE,366 BANK STREET,NA,45.41393661,-75.69525909,fast food,coffee shop,old,1,20180628,217,366 BANK,BRIDGEHEAD COFFEEHOUSE,FALSE
BRIDGEHEAD COFFEEHOUSE,440 RICHMOND ROAD,NA,45.38998032,-75.75774384,fast food,coffee shop,old,1,20180628,217,440 RICHMOND,BRIDGEHEAD COFFEEHOUSE,FALSE
BRIDGEHEAD COFFEEHOUSE,"50 Rideau St, Ottawa, ON K1N 9J7",NA,45.4251195,-75.6917194,fast food,coffee shop,old,1,20180628,217,50 RIDEAU,BRIDGEHEAD COFFEEHOUSE,FALSE
BRIDGEHEAD COFFEEHOUSE,750 BANK STREET,NA,45.40355301,-75.68878174,fast food,coffee shop,old,1,20180628,217,750 BANK,BRIDGEHEAD COFFEEHOUSE,FALSE
BRIDGEHEAD COFFEEHOUSE,96 SPARKS STREET,NA,45.42271805,-75.69747925,fast food,coffee shop,old,1,20180628,217,96 SPARKS,BRIDGEHEAD COFFEEHOUSE,FALSE
Brigid's Well,"310 St Patrick St, Ottawa, ON K1N 5K5",NA,45.4312872,-75.6905437,restaurant,nightlife,old,0,201806,NA,310 ST,BRIGID'S WELL,FALSE
Britannia Coffeehouse,"273 Britannia Road, Ottawa K2B 6W7",+1 (613) 829-9696,45.365563,-75.796079,Restaurant,Dine Out,new,NA,NA,NA,273 BRITANNIA,BRITANNIA COFFEEHOUSE,TRUE
Britannia Coffeehouse,"273 Britannia Road, Ottawa, ON K2B 6W7",NA,45.3656178,-75.7960952,fast food,coffee shop,old,0,20180726,NA,273 BRITANNIA,BRITANNIA COFFEEHOUSE,TRUE
Brixton's British Pub,"210 Sparks St, Ottawa, ON K1P 5C1",NA,45.421239,-75.700936,restaurant,nightlife,old,0,201806,NA,210 SPARKS,BRIXTON'S BRITISH PUB,FALSE
Brixton's Pub,"210 Sparks Street, Ottawa K1P 5C1",+1 (613) 233-8283,45.4214222222,-75.7010638889,Restaurant,Dine Out,new,NA,NA,NA,210 SPARKS,BRIXTON'S PUB,FALSE
Broadway Bar & Grill,"1486 Innes Road, Ottawa, ON K1B 3V5, Canada",NA,45.415038,-75.605619,restaurant,nightlife,old,1,201806,NA,1486 INNES,BROADWAY BAR & GRILL,FALSE
Broadway Bar & Grill,"1615 Orleans Blvd., Ottawa, ON",NA,45.4596014,-75.5241362,restaurant,nightlife,old,1,201806,NA,1615 ORLEANS,BROADWAY BAR & GRILL,FALSE
Broadway Bar & Grill,"1896 Prince of Wales Drive, Ottawa, ON K2C 3J7, Canada",NA,45.354327,-75.704022,restaurant,nightlife,old,1,201806,NA,1896 PRINCE,BROADWAY BAR & GRILL,FALSE
Broadway Bar & Grill,"1967 Portobello Blvd, Cumberland, ON",NA,45.4665318,-75.4659613,restaurant,nightlife,old,1,201806,NA,1967 PORTOBELLO,BROADWAY BAR & GRILL,FALSE
Broadway Bar & Grill,"3777 Strandherd Drive, Ottawa, ON",NA,45.2681524,-75.7466046,restaurant,nightlife,old,1,201806,NA,3777 STRANDHERD,BROADWAY BAR & GRILL,FALSE
Broadway Bar & Grill,"665 Earl Armstrong Road, Ottawa, ON K1V 2G2, Canada",NA,45.269324,-75.696581,restaurant,nightlife,old,1,201806,NA,665 EARL,BROADWAY BAR & GRILL,FALSE
Broadway Bar & Grill,"Barrhaven Town Centre, 3777 Strandherd Drive, Ottawa K2J 4B1",+1 (613) 825-6533,45.2680055556,-75.7483055556,Restaurant,Dine Out,new,NA,NA,NA,NA,BROADWAY BAR & GRILL,FALSE
Bronson Pizza,"368 Bronson Ave, Ottawa, ON K1R 6J3",NA,45.4097536,-75.7048839,fast food,regular,old,0,20180710,NA,368 BRONSON,BRONSON PIZZA,FALSE
Brookfield Restaurant,"704 Brookfield Road, Ottawa K1V 6J4",+1 (613) 733-9405,45.3730916667,-75.6894916667,Restaurant,Dine Out,new,NA,NA,NA,704 BROOKFIELD,BROOKFIELD RESTAURANT,TRUE
BROOKFIELD RESTAURANT,704 BROOKFIELD ROAD,NA,45.37290573,-75.68948364,restaurant,regular,old,0,20180706,NA,704 BROOKFIELD,BROOKFIELD RESTAURANT,TRUE
BROOKSTREET CAFE,525 LEGGET DRIVE,NA,45.34821701,-75.91805267,fast food,coffee shop,old,0,20180706,243,525 LEGGET,BROOKSTREET CAFE,FALSE
Brother Wu,"1060 St. Laurent Boulevard, Ottawa K1K 3B4",+1 (613) 745-1878,45.4268,-75.6392055556,Restaurant,Dine Out,new,NA,NA,NA,1060 ST,BROTHER WU,FALSE
BROTHER WU RESTAURANT,1060 ST LAURENT BOULEVARD,NA,45.42683411,-75.63937378,restaurant,regular,old,0,20180706,NA,1060 ST,BROTHER WU RESTAURANT,FALSE
Brothers Beer Bistro,366 Dalhousie Street K1N 7G3,+1 (613) 695-6300: +1 (613) 695-6300,45.42791,-75.69032,Restaurant,Dine Out,new,NA,NA,NA,366 DALHOUSIE,BROTHERS BEER BISTRO,TRUE
Brothers Beer Bistro,"366 Dalhousie St, Ottawa, ON K1N 5W2",NA,45.4276233,-75.6902976,restaurant,nightlife,old,0,201806,NA,366 DALHOUSIE,BROTHERS BEER BISTRO,TRUE
Bubblicity,"730 Somerset Street West, Ottawa K1R 6P7",+1 (613) 230-8833,45.4105388889,-75.7079472222,Restaurant,Dine Out,new,NA,NA,NA,730 SOMERSET,BUBBLICITY,FALSE
BUBBLICITY TEA SHOP,730 SOMERSET STREET WEST,NA,45.41038132,-75.70790863,restaurant,regular,old,0,20180706,NA,730 SOMERSET,BUBBLICITY TEA SHOP,FALSE
Bud's Spuds,"124 Moore Street, Carleton Place K7C 2P5",NA,45.135871,-76.136555,Restaurant,Dine Out,new,NA,NA,NA,124 MOORE,BUD'S SPUDS,FALSE
Burger King,"1 Rideaucrest Dr, Nepean, ON, K2G 6A4",NA,45.285001,-75.722801,Fast Food,Regular,new,NA,NA,NA,1 RIDEAUCREST,BURGER KING,FALSE
Burger King,"10, Rue De La Fabrique, Gatineau, QC, J9J 2X3",NA,45.410262,-75.857626,Fast Food,Regular,new,NA,NA,NA,10 RUE,BURGER KING,FALSE
Burger King,"100 Bayshore Drive, Nepean, ON, K2B 8C1",NA,45.34802,-75.804667,Fast Food,Regular,new,NA,NA,NA,100 BAYSHORE,BURGER KING,FALSE
Burger King,"100 Constellation Crescent, Ottawa, ON, K1P 1J1",NA,45.345649,-75.764445,Fast Food,Regular,new,NA,NA,NA,100 CONSTELLATION,BURGER KING,FALSE
Burger King,"100 Metcalfe Street, Ottawa, ON, K1P 0A7",NA,45.421099,-75.696023,Fast Food,Regular,new,NA,NA,NA,100 METCALFE,BURGER KING,FALSE
Burger King,"1015, Ch. De Masson, Gatineau, QC, J8M 1R4",NA,45.558233,-75.419888,Fast Food,Regular,new,NA,NA,NA,1015 CH,BURGER KING,FALSE
Burger King,"10418 Hwy 7, Carleton Place, ON, K7C 3P2",NA,45.13225,-76.120988,Fast Food,Regular,new,NA,NA,NA,10418 HWY,BURGER KING,FALSE
Burger King,"10483 Hwy 7 & 15, Carleton Place, ON, K7C 0C4",NA,45.129511,-76.123402,Fast Food,Regular,new,NA,NA,NA,10483 HWY,BURGER KING,FALSE
Burger King,"105 Sadler Drive, Almonte, ON, K0A 1A0",NA,45.234731,-76.184399,Fast Food,Regular,new,NA,NA,NA,105 SADLER,BURGER KING,FALSE
Burger King,"1053 Carling Avenue, OTTAWA GENERAL HOSPITAL CIVIC CAMPUS, Ottawa, ON, K1Y 4E9",NA,45.392504,-75.722326,Fast Food,Regular,new,NA,NA,NA,1053 CARLING,BURGER KING,FALSE
Burger King,"110 Place D'Orleans Dr, PLACE D'ORLEANS SHOPPING CENTRE, Orleans, ON, K1C 2L9",NA,45.478,-75.5166,Fast Food,Regular,new,NA,NA,NA,110 PLACE,BURGER KING,FALSE
Burger King,"1100, Boulevard Maloney Ouest, Gatineau, QC, J8T 6G3",NA,45.475736,-75.697035,Fast Food,Regular,new,NA,NA,NA,1100 BOULEVARD,BURGER KING,FALSE
Burger King,"1125 Colonel By Drive, Ottawa, ON, K1S 5B6",NA,45.387053,-75.69748,Fast Food,Regular,new,NA,NA,NA,1125 COLONEL,BURGER KING,FALSE
Burger King,"115 Montreal Rd, Vanier, ON, K1L 6E8",NA,45.434262,-75.666398,Fast Food,Regular,new,NA,NA,NA,115 MONTREAL,BURGER KING,FALSE
Burger King,"1150 Blair Rd, Gloucester, ON, K1B 3K7",NA,45.43333,-75.6084,Fast Food,Regular,new,NA,NA,NA,1150 BLAIR,BURGER KING,FALSE
Burger King,"1150 Carp Road, Stittsville, ON, K2S 1B9",NA,45.268546,-75.941173,Fast Food,Regular,new,NA,NA,NA,1150 CARP,BURGER KING,FALSE
Burger King,"120 Montreal Rd, Vanier, ON, K1L 6E6",NA,45.43387,-75.66733,Fast Food,Regular,new,NA,NA,NA,120 MONTREAL,BURGER KING,FALSE
Burger King,"1200 St Laurent Boulevard, ST. LAURENT SHOPPING CENTRE, Ottawa, ON, K1K 3B8",NA,45.422462,-75.637687,Fast Food,Regular,new,NA,NA,NA,1200 ST,BURGER KING,FALSE
Burger King,"12105 Main Street, Winchester, ON, K0C 2K0",NA,45.086168,-75.374519,Fast Food,Regular,new,NA,NA,NA,12105 MAIN,BURGER KING,FALSE
Burger King,"1223, Rue De Neuville, Gatineau, QC, J8M 1W2",NA,45.53016,-75.49541,Fast Food,Regular,new,NA,NA,NA,1223 RUE,BURGER KING,FALSE
Burger King,"1239 Donald Street, Ottawa, ON, K1J 8W3",NA,45.429542,-75.639788,Fast Food,Regular,new,NA,NA,NA,1239 DONALD,BURGER KING,FALSE
Burger King,"1259 Stittsville Main St, Stittsville, ON, K2S 2E4",NA,45.267884,-75.92859,Fast Food,Regular,new,NA,NA,NA,1259 STITTSVILLE,BURGER KING,FALSE
Burger King,"1260 Merivale Rd, Ottawa, ON, K2C 4A7",NA,45.37047,-75.732532,Fast Food,Regular,new,NA,NA,NA,1260 MERIVALE,BURGER KING,FALSE
Burger King,"1270 Trim Rd, Orleans, ON, K4A 3P7",NA,45.491112,-75.479834,Fast Food,Regular,new,NA,NA,NA,1270 TRIM,BURGER KING,FALSE
Burger King,"1356 Clyde Avenue, Ottawa K2C 3Z4",+1 (613) 723-9039,45.3626472222,-75.7407833333,Restaurant,Dine Out,new,NA,NA,NA,1356 CLYDE,BURGER KING,FALSE
Burger King,"1384 Baseline Road, Ottawa, ON, K2C 0A9",NA,45.361967,-75.738327,Fast Food,Regular,new,NA,NA,NA,1384 BASELINE,BURGER KING,FALSE
Burger King,"1406 Prince Of Wales Drive, Ottawa, ON, K2C 1N6",NA,45.369081,-75.7021,Fast Food,Regular,new,NA,NA,NA,1406 PRINCE,BURGER KING,FALSE
Burger King,"144 Franktown Road, Carleton Place, ON, K7C 3P3",NA,45.135388,-76.135845,Fast Food,Regular,new,NA,NA,NA,144 FRANKTOWN,BURGER KING,FALSE
Burger King,"1494 Innes Road, Gloucester, ON, K1B 3V5",NA,45.4148,-75.6046,Fast Food,Regular,new,NA,NA,NA,1494 INNES,BURGER KING,FALSE
Burger King,"15, Rue Eddy, Gatineau, QC, J8X 4B3",NA,45.42512,-75.720301,Fast Food,Regular,new,NA,NA,NA,15 RUE,BURGER KING,FALSE
Burger King,"1545 Woodroffe Ave, Nepean, ON, K2G 1W2",NA,45.334502,-75.751784,Fast Food,Regular,new,NA,NA,NA,1545 WOODROFFE,BURGER KING,FALSE
Burger King,"1583 Alta Vista, Ottawa, ON, K1G 0E9",NA,45.408294,-75.658141,Fast Food,Regular,new,NA,NA,NA,1583 ALTA,BURGER KING,FALSE
Burger King,"1584 Merivale Road, Nepean, ON, K2G 3K1",NA,45.350396,-75.733301,Fast Food,Regular,new,NA,NA,NA,1584 MERIVALE,BURGER KING,FALSE
Burger King,"160, Lepine Blvd, Gatineau, QC, J8L 4M4",NA,45.575222,-75.403446,Fast Food,Regular,new,NA,NA,NA,160 LEPINE,BURGER KING,FALSE
Burger King,"1600 Bank St, Ottawa, ON, K1V 7Y6",NA,45.378068,-75.667429,Fast Food,Regular,new,NA,NA,NA,1600 BANK,BURGER KING,FALSE
Burger King,"161 Laurier Ave, Ottawa, ON, K1P 5J2",NA,45.420454,-75.694452,Fast Food,Regular,new,NA,NA,NA,161 LAURIER,BURGER KING,FALSE
Burger King,"1610 Walkley Rd, Ottawa, ON, K1V 6P5",NA,45.377587,-75.645163,Fast Food,Regular,new,NA,NA,NA,1610 WALKLEY,BURGER KING,FALSE
Burger King,"1611 Bank Street, Ottawa, ON, K1V 7Y8",NA,45.37827,-75.666977,Fast Food,Regular,new,NA,NA,NA,1611 BANK,BURGER KING,FALSE
Burger King,"1611 Merivale Rd, Nepean, ON, K2G 3J4",NA,45.351716,-75.733287,Fast Food,Regular,new,NA,NA,NA,1611 MERIVALE,BURGER KING,FALSE
BURGER KING,16-1356 CLYDE AVENUE,NA,45.3626976,-75.74088287,fast food,regular,old,1,20180628,441,161356 CLYDE,BURGER KING,FALSE
Burger King,"1622 Roger Stevens, Kars, ON, K0A 2E0",NA,45.15568,-75.657958,Fast Food,Regular,new,NA,NA,NA,1622 ROGER,BURGER KING,FALSE
Burger King,"165, Rue Principale, Gatineau, QC, J9H 3M9",NA,45.395544,-75.838443,Fast Food,Regular,new,NA,NA,NA,165 RUE,BURGER KING,FALSE
Burger King,"1665 Hunt Club Road, Ottawa, ON, K1V 1C1",NA,45.360694,-75.630965,Fast Food,Regular,new,NA,NA,NA,1665 HUNT,BURGER KING,FALSE
Burger King,"1675 Tenth Line Rd, Orleans, ON, K1E 3P6",NA,45.4693,-75.4925,Fast Food,Regular,new,NA,NA,NA,1675 TENTH,BURGER KING,FALSE
Burger King,"171 Slater Street, Ottawa, ON, K1P 5H7",NA,45.420179,-75.697915,Fast Food,Regular,new,NA,NA,NA,171 SLATER,BURGER KING,FALSE
Burger King,"172, Chemin De La Vallee De Wakefield, Wakefield, QC, J0X 3G0",NA,45.625028,-75.934613,Fast Food,Regular,new,NA,NA,NA,172 CHEMIN,BURGER KING,FALSE
Burger King,"1720 Innes Road, Gloucester, ON, K1B 3K5",NA,45.4165,-75.6017,Fast Food,Regular,new,NA,NA,NA,1720 INNES,BURGER KING,FALSE
Burger King,"1778 Carling Avenue, Ottawa, ON, K2A 1E1",NA,45.377227,-75.753743,Fast Food,Regular,new,NA,NA,NA,1778 CARLING,BURGER KING,FALSE
Burger King,"1797, Route Du Carrefour, Val-Des-Monts, QC, J8N 7M7",NA,45.595141,-75.61682,Fast Food,Regular,new,NA,NA,NA,1797 ROUTE,BURGER KING,FALSE
Burger King,"1802 St Laurent Blvd, Ottawa, ON, K1G 1A2",NA,45.403659,-75.627021,Fast Food,Regular,new,NA,NA,NA,1802 ST,BURGER KING,FALSE
BURGER KING,1804 ST LAURENT BOULEVARD,NA,45.40341949,-75.6263504,fast food,regular,old,1,20180628,441,1804 ST,BURGER KING,FALSE
Burger King,"1856 Robertson Road, Nepean, ON, K2H 5B8",NA,45.327392,-75.820304,Fast Food,Regular,new,NA,NA,NA,1856 ROBERTSON,BURGER KING,FALSE
Burger King,"1857 Merivale Rd, Nepean, ON, K2G 1E3",NA,45.335591,-75.723996,Fast Food,Regular,new,NA,NA,NA,1857 MERIVALE,BURGER KING,FALSE
Burger King,"1859 Carling Ave, Ottawa, ON, K2A 1E4",NA,45.376442,-75.757446,Fast Food,Regular,new,NA,NA,NA,1859 CARLING,BURGER KING,FALSE
Burger King,"187 Bank Street, Ottawa, ON, K2P 1W7",NA,45.417966,-75.698599,Fast Food,Regular,new,NA,NA,NA,187 BANK,BURGER KING,FALSE
Burger King,"1879 Robertson Rd, Nepean, ON, K2H 5B7",NA,45.327332,-75.821497,Fast Food,Regular,new,NA,NA,NA,1879 ROBERTSON,BURGER KING,FALSE
Burger King,"1910 Merivale Road, Nepean, ON, K2G 1E8",NA,45.329667,-75.721225,Fast Food,Regular,new,NA,NA,NA,1910 MERIVALE,BURGER KING,FALSE
Burger King,"1950 Walkley Road, Ottawa, ON, K1H 1W1",NA,45.382485,-75.631739,Fast Food,Regular,new,NA,NA,NA,1950 WALKLEY,BURGER KING,FALSE
Burger King,"1967 Riverside Drive, Ottawa, ON, K1H 7W9",NA,45.397067,-75.668484,Fast Food,Regular,new,NA,NA,NA,1967 RIVERSIDE,BURGER KING,FALSE
Burger King,"1980 Baseline Road, Ottawa, ON, K2C 0C6",NA,45.351447,-75.759601,Fast Food,Regular,new,NA,NA,NA,1980 BASELINE,BURGER KING,FALSE
Burger King,"1980 Joseph Blvd, Orleans, ON, K1C 1E4",NA,45.4637,-75.5404,Fast Food,Regular,new,NA,NA,NA,1980 JOSEPH,BURGER KING,FALSE
BURGER KING,199 MONTREAL ROAD,NA,45.43545151,-75.66375732,fast food,regular,old,1,20180628,441,199 MONTREAL,BURGER KING,FALSE
Burger King,"2, Av. Du Pont Sud, Gatineau, QC, J8V 1E5",NA,45.488092,-75.74787,Fast Food,Regular,new,NA,NA,NA,2 AV,BURGER KING,FALSE
Burger King,"2 Racine St, Casselman, ON, K0A 1M0",NA,45.305802,-75.08107,Fast Food,Regular,new,NA,NA,NA,2 RACINE,BURGER KING,FALSE
Burger King,"2 Staye Court Drive, Arnprior, ON, K7S 0E7",NA,45.423237,-76.370504,Fast Food,Regular,new,NA,NA,NA,2 STAYE,BURGER KING,FALSE
Burger King,"200, Promenade Du Portage, Gatineau, QC, J8X 4B7",NA,45.426766,-75.712926,Fast Food,Regular,new,NA,NA,NA,200 PROMENADE,BURGER KING,FALSE
Burger King,"200 Sparks Street, Ottawa, ON, K1P 5C1",NA,45.421363,-75.70095,Fast Food,Regular,new,NA,NA,NA,200 SPARKS,BURGER KING,FALSE
Burger King,"201 Madawaska Blvd, Arnprior, ON, K7S 1S6",NA,45.432462,-76.343059,Fast Food,Regular,new,NA,NA,NA,201 MADAWASKA,BURGER KING,FALSE
Burger King,"2016 Ogilvie Rd, Gloucester, ON, K1J 7N9",NA,45.436198,-75.605414,Fast Food,Regular,new,NA,NA,NA,2016 OGILVIE,BURGER KING,FALSE
Burger King,"2020 Trim Road, Orleans, ON, K4A 0G4",NA,45.468823,-75.4539,Fast Food,Regular,new,NA,NA,NA,2020 TRIM,BURGER KING,FALSE
BURGER KING,"2035 10th Line Rd, Cumberland, ON K4A 4C5",NA,45.4599712,-75.4867616,fast food,regular,old,1,20180628,441,2035 10TH,BURGER KING,FALSE
BURGER KING,2035 TENTH LINE ROAD,NA,45.45993423,-75.48675537,fast food,regular,old,1,20180628,441,2035 TENTH,BURGER KING,FALSE
Burger King,"2075 Montreal Road, Gloucester, ON, K1J 6M6",NA,45.447524,-75.594212,Fast Food,Regular,new,NA,NA,NA,2075 MONTREAL,BURGER KING,FALSE
Burger King,"208, Boul. St-Raymond, Gatineau, QC, J9A 3H6",NA,45.43693,-75.766491,Fast Food,Regular,new,NA,NA,NA,208 BOUL,BURGER KING,FALSE
Burger King,"210, Boul. De La Cite Des Jeunes, Gatineau, QC, J8Y 6L1",NA,45.449227,-75.754392,Fast Food,Regular,new,NA,NA,NA,210 BOUL,BURGER KING,FALSE
Burger King,"2100 Hunt Club Rd, Ottawa, ON, K1T 3S4",NA,45.364073,-75.619832,Fast Food,Regular,new,NA,NA,NA,2100 HUNT,BURGER KING,FALSE
Burger King,"2121 Carling Ave Unit 57, Ottawa, ON, K2A 1S3",NA,45.37273,-75.770252,Fast Food,Regular,new,NA,NA,NA,2121 CARLING,BURGER KING,FALSE
Burger King,"2134 Montreal Road, Gloucester, ON, K1J 6M7",NA,45.4485,-75.5906,Fast Food,Regular,new,NA,NA,NA,2134 MONTREAL,BURGER KING,FALSE
Burger King,"2140 Bank Street, Winchester, ON, K0C 2K0",NA,45.088233,-75.377927,Fast Food,Regular,new,NA,NA,NA,2140 BANK,BURGER KING,FALSE
Burger King,"2145 Robertson Rd, Robertson Road, Nepean, ON, K2H 5Z2",NA,45.320789,-75.837074,Fast Food,Regular,new,NA,NA,NA,2145 ROBERTSON,BURGER KING,FALSE
Burger King,"2162 Prince Of Wales Dr, Nepean, ON, K2E 7A4",NA,45.333425,-75.7018,Fast Food,Regular,new,NA,NA,NA,2162 PRINCE,BURGER KING,FALSE
Burger King,"225 Huntmar Dr, Stittsville, ON, K2S 1B9",NA,45.29418,-75.927885,Fast Food,Regular,new,NA,NA,NA,225 HUNTMAR,BURGER KING,FALSE
Burger King,"2277 Riverside Drive, BILLINGSBRIDGE SHOPPING CENTRE, Ottawa, ON, K1H 7X6",NA,45.385759,-75.67743,Fast Food,Regular,new,NA,NA,NA,2277 RIVERSIDE,BURGER KING,FALSE
Burger King,"2280 Tenth Line Rd, Orleans, ON, K4A 0X4",NA,45.452214,-75.483402,Fast Food,Regular,new,NA,NA,NA,2280 TENTH,BURGER KING,FALSE
Burger King,"2301 Navaho Drive, Nepean, ON, K2G 6Z1",NA,45.35314,-75.755607,Fast Food,Regular,new,NA,NA,NA,2301 NAVAHO,BURGER KING,FALSE
Burger King,"2311 St Joseph Blvd, Orleans, ON, K1C 1E7",NA,45.4693,-75.5312,Fast Food,Regular,new,NA,NA,NA,2311 ST,BURGER KING,FALSE
Burger King,"2495 Bank Street, Ottawa, ON, K1V 0Y5",NA,45.35438,-75.645757,Fast Food,Regular,new,NA,NA,NA,2495 BANK,BURGER KING,FALSE
Burger King,"25, Boul. De Lucerne, Gatineau, QC, J9H 1L9",NA,45.38638,-75.805304,Fast Food,Regular,new,NA,NA,NA,25 BOUL,BURGER KING,FALSE
Burger King,"25, Ch. De La Savane, Gatineau, QC, J8T 8A4",NA,45.474122,-75.704971,Fast Food,Regular,new,NA,NA,NA,25 CH,BURGER KING,FALSE
Burger King,"250 Greenbank Road, Nepean, ON, K2H 8X4",NA,45.32523,-75.779353,Fast Food,Regular,new,NA,NA,NA,250 GREENBANK,BURGER KING,FALSE
Burger King,"2545 Baseline Rd, Ottawa, ON, K2H 7B3",NA,45.342152,-75.786083,Fast Food,Regular,new,NA,NA,NA,2545 BASELINE,BURGER KING,FALSE
Burger King,"2600 Highway 43, Kemptville, ON, K0G 1J0",NA,45.018348,-75.658008,Fast Food,Regular,new,NA,NA,NA,2600 HIGHWAY,BURGER KING,FALSE
Burger King,"263 Bank Street, Ottawa, ON, K2P 1X5",NA,45.41634,-75.697204,Fast Food,Regular,new,NA,NA,NA,263 BANK,BURGER KING,FALSE
Burger King,"2636 Innes Road, Gloucester, ON, K1B 4Z5",NA,45.431811,-75.563411,Fast Food,Regular,new,NA,NA,NA,2636 INNES,BURGER KING,FALSE
Burger King,"275 Slater St, Ottawa, ON, K1P 5H9",NA,45.41863,-75.701413,Fast Food,Regular,new,NA,NA,NA,275 SLATER,BURGER KING,FALSE
Burger King,"2790 Lancaster Road, Ottawa, ON, K1B 4S4",NA,45.394311,-75.605301,Fast Food,Regular,new,NA,NA,NA,2790 LANCASTER,BURGER KING,FALSE
Burger King,"2875 Rue Laporte, Rockland, ON, K4K 1A3",NA,45.5396,-75.3024,Fast Food,Regular,new,NA,NA,NA,2875 RUE,BURGER KING,FALSE
Burger King,"2895 St Joseph Blvd, Orleans, ON, K1C 1C7",NA,45.4752,-75.5184,Fast Food,Regular,new,NA,NA,NA,2895 ST,BURGER KING,FALSE
Burger King,"2951 Bank Street, Gloucester, ON, K1T 1N9",NA,45.34737,-75.623904,Fast Food,Regular,new,NA,NA,NA,2951 BANK,BURGER KING,FALSE
Burger King,"297 Edwards Street, Rockland, ON, K4K 1H6",NA,45.5516,-75.2954,Fast Food,Regular,new,NA,NA,NA,297 EDWARDS,BURGER KING,FALSE
Burger King,"2970 Carling Avenue, Ottawa, ON, K2B 7J7",NA,45.355548,-75.803319,Fast Food,Regular,new,NA,NA,NA,2970 CARLING,BURGER KING,FALSE
Burger King,"300 Colonade Drive Rr#3, Kemptville, ON, K0G 1J0",NA,45.03007,-75.6336,Fast Food,Regular,new,NA,NA,NA,300 COLONADE,BURGER KING,FALSE
Burger King,"3045 Baseline Rd, Nepean, ON, K2H 8P4",NA,45.336257,-75.807479,Fast Food,Regular,new,NA,NA,NA,3045 BASELINE,BURGER KING,FALSE
Burger King,"3224 Hawthorne Rd, Ottawa, ON, K1G 3V9",NA,45.381938,-75.602268,Fast Food,Regular,new,NA,NA,NA,3224 HAWTHORNE,BURGER KING,FALSE
Burger King,"327, Boul. Maloney Est, Est, Gatineau, QC J8P 1E2, Gatineau, QC, J8P 1E2",NA,45.484679,-75.642927,Fast Food,Regular,new,NA,NA,NA,327 BOUL,BURGER KING,FALSE
Burger King,"330 Queen St, Ottawa, ON, K1R 7Y5",NA,45.419047,-75.70399,Fast Food,Regular,new,NA,NA,NA,330 QUEEN,BURGER KING,FALSE
Burger King,"3330 Fallowfield Road, Nepean, ON, K2J 4P5",NA,45.297635,-75.732697,Fast Food,Regular,new,NA,NA,NA,3330 FALLOWFIELD,BURGER KING,FALSE
Burger King,"350 Cresthaven, Unit 800, Nepean, ON, K2G 4P4",NA,45.273324,-75.708686,Fast Food,Regular,new,NA,NA,NA,350 CRESTHAVEN,BURGER KING,FALSE
Burger King,"3580 Strandherd Dr, Nepean, ON, K2J 5L4",NA,45.274434,-75.738382,Fast Food,Regular,new,NA,NA,NA,3580 STRANDHERD,BURGER KING,FALSE
Burger King,"3691 Strandherd Drive, Nepean, ON, K2J 4G8",NA,45.2711,-75.744301,Fast Food,Regular,new,NA,NA,NA,3691 STRANDHERD,BURGER KING,FALSE
Burger King,"3705 Riverside Drive, Ottawa, ON, K1V 1G8",NA,45.34218,-75.69094,Fast Food,Regular,new,NA,NA,NA,3705 RIVERSIDE,BURGER KING,FALSE
Burger King,"372 Hunt Club Road, Ottawa, ON, K1V 1C1",NA,45.33794,-75.683895,Fast Food,Regular,new,NA,NA,NA,372 HUNT,BURGER KING,FALSE
Burger King,"378, Boul. Greber, Gatineau, QC, J8T 5R6",NA,45.481218,-75.701766,Fast Food,Regular,new,NA,NA,NA,378 BOUL,BURGER KING,FALSE
Burger King,"3869 Innes Road, Orleans, ON, K1C 1T1",NA,45.4532,-75.5121,Fast Food,Regular,new,NA,NA,NA,3869 INNES,BURGER KING,FALSE
Burger King,"387, Rue Papineau, Papineauville, QC, J0V 1R0",NA,45.616169,-75.029283,Fast Food,Regular,new,NA,NA,NA,387 RUE,BURGER KING,FALSE
Burger King,"40 Ruskin Avenue, OTTAWA HEART INSTITUTE, Ottawa, ON, K1Y 4W7",NA,45.39443,-75.721067,Fast Food,Regular,new,NA,NA,NA,40 RUSKIN,BURGER KING,FALSE
Burger King,"401 Hazeldean Road, Kanata, ON, K2L 4C6",NA,45.304056,-75.877945,Fast Food,Regular,new,NA,NA,NA,401 HAZELDEAN,BURGER KING,FALSE
Burger King,"405, Ch. Vanier, Gatineau, QC, J9J 3H9",NA,45.413572,-75.80775,Fast Food,Regular,new,NA,NA,NA,405 CH,BURGER KING,FALSE
Burger King,"4060 Carling Ave, Kanata, ON, K2K 1Y1",NA,45.337072,-75.90845,Fast Food,Regular,new,NA,NA,NA,4060 CARLING,BURGER KING,FALSE
Burger King,"407 March Road, Kanata, ON, K2K 0K1",NA,45.338148,-75.911701,Fast Food,Regular,new,NA,NA,NA,407 MARCH,BURGER KING,FALSE
Burger King,"415, Boul. De La Verendrye Est, Gatineau, QC, J8R 1N2",NA,45.501328,-75.641554,Fast Food,Regular,new,NA,NA,NA,415 BOUL,BURGER KING,FALSE
Burger King,"415, Montã©E De La Source, Cantley, QC, J8V 3B5",NA,45.539932,-75.770645,Fast Food,Regular,new,NA,NA,NA,415 MONTÃ,BURGER KING,FALSE
Burger King,"415, Montee Paiement, Gatineau, QC, J8P 0B1",NA,45.49087,-75.67609,Fast Food,Regular,new,NA,NA,NA,415 MONTEE,BURGER KING,FALSE
Burger King,"423 Cumberland St, Ottawa, ON, K1N 0B5",NA,45.427928,-75.687176,Fast Food,Regular,new,NA,NA,NA,423 CUMBERLAND,BURGER KING,FALSE
Burger King,"4295 Strandherd Drive, Nepean, ON, K2J 5P8",NA,45.271715,-75.785794,Fast Food,Regular,new,NA,NA,NA,4295 STRANDHERD,BURGER KING,FALSE
Burger King,"44 Edgewater, Kanata, ON, K2L 1V8",NA,45.297569,-75.900941,Fast Food,Regular,new,NA,NA,NA,44 EDGEWATER,BURGER KING,FALSE
Burger King,"4454 Innes Road, Orleans, ON, K4A 3J7",NA,45.4608,-75.4857,Fast Food,Regular,new,NA,NA,NA,4454 INNES,BURGER KING,FALSE
Burger King,"450 Bank Street, Kanata, ON, K2K 1X7",NA,45.411837,-75.693483,Fast Food,Regular,new,NA,NA,NA,450 BANK,BURGER KING,FALSE
Burger King,"46 Boulevard Greber, Gatineau, QC, J8T 3P6",NA,45.460955,-75.702454,Fast Food,Regular,new,NA,NA,NA,46 BOULEVARD,BURGER KING,FALSE
Burger King,"4764 Bank Street, Gloucester, ON, K1T 3W7",NA,45.318763,-75.593203,Fast Food,Regular,new,NA,NA,NA,4764 BANK,BURGER KING,FALSE
Burger King,"479 March Road, Kanata, ON, K2K 2M5",NA,45.342139,-75.916949,Fast Food,Regular,new,NA,NA,NA,479 MARCH,BURGER KING,FALSE
Burger King,"50 Rideau Street, Ottawa, ON, K1N 9J7",NA,45.425823,-75.691672,Fast Food,Regular,new,NA,NA,NA,50 RIDEAU,BURGER KING,FALSE
Burger King,"501 Smyth Road, THE OTTAWA HOSPITAL-GENERAL CAMPUS, Ottawa, ON, K1H 8L6",NA,45.402029,-75.646051,Fast Food,Regular,new,NA,NA,NA,501 SMYTH,BURGER KING,FALSE
Burger King,"501 Terry Fox Drive, Kanata, ON, K2T 1E8",NA,45.310008,-75.918352,Fast Food,Regular,new,NA,NA,NA,501 TERRY,BURGER KING,FALSE
Burger King,"525 Somerset Street West, Ottawa, ON, K1R 5W6",NA,45.413303,-75.7018,Fast Food,Regular,new,NA,NA,NA,525 SOMERSET,BURGER KING,FALSE
BURGER KING,527 WEST HUNT CLUB ROAD,NA,45.33427429,-75.72606659,fast food,regular,old,1,20180628,441,527 WEST,BURGER KING,FALSE
Burger King,"535 Terminal Ave, Ottawa, ON, K1G 0Z2",NA,45.414723,-75.643608,Fast Food,Regular,new,NA,NA,NA,535 TERMINAL,BURGER KING,FALSE
Burger King,"5357 Fernbank, Kanata, ON, K2S 1B6",NA,45.274582,-75.872006,Fast Food,Regular,new,NA,NA,NA,5357 FERNBANK,BURGER KING,FALSE
Burger King,"585 Montreal Road, Ottawa, ON, K1K 4K3",NA,45.442426,-75.644621,Fast Food,Regular,new,NA,NA,NA,585 MONTREAL,BURGER KING,FALSE
Burger King,"5915 Perth St, Richmond, ON, K0A 2Z0",NA,45.202171,-75.828807,Fast Food,Regular,new,NA,NA,NA,5915 PERTH,BURGER KING,FALSE
Burger King,"6 Edgewater Road, Kanata, ON, K2L 1V8",NA,45.295222,-75.893934,Fast Food,Regular,new,NA,NA,NA,6 EDGEWATER,BURGER KING,FALSE
Burger King,"6061 Hazeldean Rd, Stittsville, ON, K2S 1B9",NA,45.272662,-75.930484,Fast Food,Regular,new,NA,NA,NA,6061 HAZELDEAN,BURGER KING,FALSE
Burger King,"631 Industrial Avenue, Ottawa, ON, K1G 0Z1",NA,45.411161,-75.640794,Fast Food,Regular,new,NA,NA,NA,631 INDUSTRIAL,BURGER KING,FALSE
Burger King,"640, Boul. Maloney Ouest Walmart #3125, Gatineau, QC, J8P 7M4",NA,45.481261,-75.676223,Fast Food,Regular,new,NA,NA,NA,640 BOUL,BURGER KING,FALSE
Burger King,"650, Boul. St-Joseph, Gatineau, QC, J8Y 4A8",NA,45.45199,-75.738209,Fast Food,Regular,new,NA,NA,NA,650 BOUL,BURGER KING,FALSE
Burger King,"650 Eagleson Rd, Kanata, ON, K2M 1H4",NA,45.288154,-75.86851,Fast Food,Regular,new,NA,NA,NA,650 EAGLESON,BURGER KING,FALSE
Burger King,"655 Bronson Avenue, Ottawa, ON, K1S 4E7",NA,45.403892,-75.70143,Fast Food,Regular,new,NA,NA,NA,655 BRONSON,BURGER KING,FALSE
BURGER KING,700 MARCH ROAD,NA,45.34985352,-75.92507935,fast food,regular,old,1,20180628,441,700 MARCH,BURGER KING,FALSE
Burger King,"740, Montee Paiement, Gatineau, QC, J8R 4A3",NA,45.503918,-75.676568,Fast Food,Regular,new,NA,NA,NA,740 MONTEE,BURGER KING,FALSE
Burger King,"771 Notre Dame St, Embrun, ON, K0A 1W1",NA,45.267981,-75.301139,Fast Food,Regular,new,NA,NA,NA,771 NOTRE,BURGER KING,FALSE
Burger King,"88 Broadway Avenue, Russell, ON, K4R 1A1",NA,45.256107,-75.374558,Fast Food,Regular,new,NA,NA,NA,88 BROADWAY,BURGER KING,FALSE
Burger King,"894, Boul. St-Joseph, Gatineau, QC, J8Z 1S9",NA,45.464576,-75.738549,Fast Food,Regular,new,NA,NA,NA,894 BOUL,BURGER KING,FALSE
Burger King,"90 Elgin Street, Ottawa, ON, K1P 0C6",NA,45.422085,-75.69477,Fast Food,Regular,new,NA,NA,NA,90 ELGIN,BURGER KING,FALSE
Burger King,"911 Watters Road, Orleans, ON, K4A 3K5",NA,45.4841,-75.4756,Fast Food,Regular,new,NA,NA,NA,911 WATTERS,BURGER KING,FALSE
Burger King,"933, Boul. Maloney Est, Gatineau, QC, J8P 1H8",NA,45.491266,-75.593066,Fast Food,Regular,new,NA,NA,NA,933 BOUL,BURGER KING,FALSE
Burger King,"989 River Road, Manotick, ON, K4M 1B2",NA,45.234403,-75.676383,Fast Food,Regular,new,NA,NA,NA,989 RIVER,BURGER KING,FALSE
Burger King,"993 Richmond Rd, Ottawa, ON, K2B 6R1",NA,45.375916,-75.77702,Fast Food,Regular,new,NA,NA,NA,993 RICHMOND,BURGER KING,FALSE
Burger King,"99-99 Rideau Street, Ottawa, ON, K1N 9L8",NA,45.426206,-75.691604,Fast Food,Regular,new,NA,NA,NA,9999 RIDEAU,BURGER KING,FALSE
BURGER LOVERS,233 LAURIER AVENUE EAST,NA,45.4259491,-75.68162537,fast food,regular,old,0,20180706,287,233 LAURIER,BURGER LOVERS,FALSE
Burgers & Shakes,"5510 Limebank Road, Ottawa K1X 1C3",+1 (613) 822-4454,45.2465944444,-75.6495444444,Restaurant,Dine Out,new,NA,NA,NA,5510 LIMEBANK,BURGERS & SHAKES,FALSE
Burgers and Shakes,"200 Kennevale Drive, Nepean, ON K2J 0C3",NA,45.2653836,-75.7769071,fast food,regular,old,0,20180726,NA,200 KENNEVALE,BURGERS AND SHAKES,FALSE
BURGERS N' FRIES FOREVER,"278 Dalhousie Street, Ottawa, ON K1N 7E6",NA,45.4299834,-75.6922257,fast food,regular,old,1,20180706,363,278 DALHOUSIE,BURGERS N' FRIES FOREVER,FALSE
Burgers n' Fries Forever,329 Bank Street K2P 1X9 1X9,+1 (613) 230-3456,45.41444,-75.69516,Restaurant,Dine Out,new,NA,NA,NA,329 BANK,BURGERS N' FRIES FOREVER,TRUE
BURGERS N' FRIES FOREVER,329 BANK STREET,NA,45.41436768,-75.69538116,fast food,regular,old,1,20180706,363,329 BANK,BURGERS N' FRIES FOREVER,TRUE
BURGERS N' FRIES FOREVER,329 BANK STREET,NA,45.4144249,-75.69541931,restaurant,regular,old,0,20180706,NA,329 BANK,BURGERS N' FRIES FOREVER,TRUE
Burgers n' Fries Forever (BFF),"278 Dalhousie Street, Ottawa K1N 7E6",+1 (613) 241-3456,45.4299298,-75.6922509,Restaurant,Dine Out,new,NA,NA,NA,278 DALHOUSIE,BURGERS N' FRIES FOREVER (BFF),FALSE
Burgers on Beechwood,"49 Beechwood Ave, Ottawa, ON K1L 8B2",NA,45.4401811,-75.6758718,restaurant,regular,old,0,20180710,NA,49 BEECHWOOD,BURGERS ON BEECHWOOD,FALSE
Burrito Borracho,"105 Clarence Street, Unit A, Ottawa K1N 5P5",+1 (613) 789-9115,45.4293888889,-75.6924277778,Restaurant,Dine Out,new,NA,NA,NA,105 CLARENCE,BURRITO BORRACHO,FALSE
BURRITO BURRACHO,105 CLARENCE STREET,NA,45.42951965,-75.69243622,restaurant,regular,old,0,20180706,NA,105 CLARENCE,BURRITO BURRACHO,FALSE
